stop_id,stop_name,stop_lat,stop_lon,location_type,parent_station,platform_code,stop_url
de:09162:10:2:2,Pasing,48.1491105204354,11.4600594871376,,,,http://efa.mvv-muenchen.de/mvv/XSLT_TRIP_REQUEST2?language=de&placeState_origin=empty&type_origin=stopID&name_origin=10&nameState_origin=empty&sessionID=0
de:09162:10:4:5,Pasing,48.1494380834191,11.4589540406348,,,,http://efa.mvv-muenchen.de/mvv/XSLT_TRIP_REQUEST2?language=de&placeState_origin=empty&type_origin=stopID&name_origin=10&nameState_origin=empty&sessionID=0
de:09162:10:6:6,Pasing,48.1488782796108,11.4603978969339,,,,http://efa.mvv-muenchen.de/mvv/XSLT_TRIP_REQUEST2?language=de&placeState_origin=empty&type_origin=stopID&name_origin=10&nameState_origin=empty&sessionID=0
de:09162:1010:2:2,Neuperlach Süd,48.0899409042825,11.6445156093537,,,,http://efa.mvv-muenchen.de/mvv/XSLT_TRIP_REQUEST2?language=de&placeState_origin=empty&type_origin=stopID&name_origin=1010&nameState_origin=empty&sessionID=0
de:09162:1010:5:5,Neuperlach Süd,48.0894628087646,11.6440490755247,,,,http://efa.mvv-muenchen.de/mvv/XSLT_TRIP_REQUEST2?language=de&placeState_origin=empty&type_origin=stopID&name_origin=1010&nameState_origin=empty&sessionID=0
de:09162:1010:7:7,Neuperlach Süd,48.0891412073021,11.6447493101137,,,,http://efa.mvv-muenchen.de/mvv/XSLT_TRIP_REQUEST2?language=de&placeState_origin=empty&type_origin=stopID&name_origin=1010&nameState_origin=empty&sessionID=0
de:09162:1010:8:8,Neuperlach Süd,48.0897617433264,11.6447450433213,,,,http://efa.mvv-muenchen.de/mvv/XSLT_TRIP_REQUEST2?language=de&placeState_origin=empty&type_origin=stopID&name_origin=1010&nameState_origin=empty&sessionID=0
de:09162:1108:5:5,Chiemgaustraße,48.1073368581843,11.5962289673159,,,,http://efa.mvv-muenchen.de/mvv/XSLT_TRIP_REQUEST2?language=de&placeState_origin=empty&type_origin=stopID&name_origin=1108&nameState_origin=empty&sessionID=0
de:09162:1108:6:6,Chiemgaustraße,48.106976611982,11.5960840759527,,,,http://efa.mvv-muenchen.de/mvv/XSLT_TRIP_REQUEST2?language=de&placeState_origin=empty&type_origin=stopID&name_origin=1108&nameState_origin=empty&sessionID=0
de:09162:1110:2:16,Giesing,48.1108229156738,11.5952616616818,,,,http://efa.mvv-muenchen.de/mvv/XSLT_TRIP_REQUEST2?language=de&placeState_origin=empty&type_origin=stopID&name_origin=1110&nameState_origin=empty&sessionID=0
de:09162:1110:3:15,Giesing,48.1106163083923,11.5953304269449,,,,http://efa.mvv-muenchen.de/mvv/XSLT_TRIP_REQUEST2?language=de&placeState_origin=empty&type_origin=stopID&name_origin=1110&nameState_origin=empty&sessionID=0
de:09162:1111:1:1,Traunsteiner Straße,48.1046721993222,11.5878844792545,,,,http://efa.mvv-muenchen.de/mvv/XSLT_TRIP_REQUEST2?language=de&placeState_origin=empty&type_origin=stopID&name_origin=1111&nameState_origin=empty&sessionID=0
de:09162:1111:2:2,Traunsteiner Straße,48.1047401967425,11.5867828804791,,,,http://efa.mvv-muenchen.de/mvv/XSLT_TRIP_REQUEST2?language=de&placeState_origin=empty&type_origin=stopID&name_origin=1111&nameState_origin=empty&sessionID=0
de:09162:1112:1:1,Pöllatstraße,48.1051684199565,11.5908480227151,,,,http://efa.mvv-muenchen.de/mvv/XSLT_TRIP_REQUEST2?language=de&placeState_origin=empty&type_origin=stopID&name_origin=1112&nameState_origin=empty&sessionID=0
de:09162:1112:2:2,Pöllatstraße,48.1052484991775,11.5906056904731,,,,http://efa.mvv-muenchen.de/mvv/XSLT_TRIP_REQUEST2?language=de&placeState_origin=empty&type_origin=stopID&name_origin=1112&nameState_origin=empty&sessionID=0
de:09162:1179:3:KIF 1,Kiefernstraße,48.0878049730795,11.5993481609048,,,,http://efa.mvv-muenchen.de/mvv/XSLT_TRIP_REQUEST2?language=de&placeState_origin=empty&type_origin=stopID&name_origin=1179&nameState_origin=empty&sessionID=0
de:09162:1179:3:KIF 2,Kiefernstraße,48.0874456176138,11.5994583319907,,,,http://efa.mvv-muenchen.de/mvv/XSLT_TRIP_REQUEST2?language=de&placeState_origin=empty&type_origin=stopID&name_origin=1179&nameState_origin=empty&sessionID=0
de:09162:1181:2:2,Minnewitstraße,48.0908647768991,11.5973511150955,,,,http://efa.mvv-muenchen.de/mvv/XSLT_TRIP_REQUEST2?language=de&placeState_origin=empty&type_origin=stopID&name_origin=1181&nameState_origin=empty&sessionID=0
de:09162:1181:3:3,Minnewitstraße,48.0911058080492,11.5968391256977,,,,http://efa.mvv-muenchen.de/mvv/XSLT_TRIP_REQUEST2?language=de&placeState_origin=empty&type_origin=stopID&name_origin=1181&nameState_origin=empty&sessionID=0
de:09162:1182:3:LIN 1,Lincolnstraße,48.0942220681944,11.5904783080952,,,,http://efa.mvv-muenchen.de/mvv/XSLT_TRIP_REQUEST2?language=de&placeState_origin=empty&type_origin=stopID&name_origin=1182&nameState_origin=empty&sessionID=0
de:09162:1182:3:LIN 2,Lincolnstraße,48.0941236682691,11.5906267605658,,,,http://efa.mvv-muenchen.de/mvv/XSLT_TRIP_REQUEST2?language=de&placeState_origin=empty&type_origin=stopID&name_origin=1182&nameState_origin=empty&sessionID=0
de:09162:1183:1:1,Stettnerstraße,48.0965385454657,11.5868887885614,,,,http://efa.mvv-muenchen.de/mvv/XSLT_TRIP_REQUEST2?language=de&placeState_origin=empty&type_origin=stopID&name_origin=1183&nameState_origin=empty&sessionID=0
de:09162:1183:2:2,Stettnerstraße,48.0973925141467,11.5867745521102,,,,http://efa.mvv-muenchen.de/mvv/XSLT_TRIP_REQUEST2?language=de&placeState_origin=empty&type_origin=stopID&name_origin=1183&nameState_origin=empty&sessionID=0
de:09162:1184:1:1,Soyerhofstraße,48.1017457985377,11.58191951528,,,,http://efa.mvv-muenchen.de/mvv/XSLT_TRIP_REQUEST2?language=de&placeState_origin=empty&type_origin=stopID&name_origin=1184&nameState_origin=empty&sessionID=0
de:09162:1184:2:2,Soyerhofstraße,48.1014583578577,11.5820158294378,,,,http://efa.mvv-muenchen.de/mvv/XSLT_TRIP_REQUEST2?language=de&placeState_origin=empty&type_origin=stopID&name_origin=1184&nameState_origin=empty&sessionID=0
de:09162:1189:1:1,Peter-Auzinger-Straße,48.0985650832743,11.5827373974622,,,,http://efa.mvv-muenchen.de/mvv/XSLT_TRIP_REQUEST2?language=de&placeState_origin=empty&type_origin=stopID&name_origin=1189&nameState_origin=empty&sessionID=0
de:09162:1189:2:2,Peter-Auzinger-Straße,48.0987990523958,11.5827757846899,,,,http://efa.mvv-muenchen.de/mvv/XSLT_TRIP_REQUEST2?language=de&placeState_origin=empty&type_origin=stopID&name_origin=1189&nameState_origin=empty&sessionID=0
de:09162:1200:1:1,St.-Quirin-Platz,48.1038952193017,11.5819155364783,,,,http://efa.mvv-muenchen.de/mvv/XSLT_TRIP_REQUEST2?language=de&placeState_origin=empty&type_origin=stopID&name_origin=1200&nameState_origin=empty&sessionID=0
de:09162:1200:2:2,St.-Quirin-Platz,48.1040830026662,11.5816186142358,,,,http://efa.mvv-muenchen.de/mvv/XSLT_TRIP_REQUEST2?language=de&placeState_origin=empty&type_origin=stopID&name_origin=1200&nameState_origin=empty&sessionID=0
de:09162:1250:2:2,Messestadt West,48.1335091884313,11.6894645505889,,,,http://efa.mvv-muenchen.de/mvv/XSLT_TRIP_REQUEST2?language=de&placeState_origin=empty&type_origin=stopID&name_origin=1250&nameState_origin=empty&sessionID=0
de:09162:1260:1:3,Messestadt Ost,48.1334650800486,11.7034371976669,,,,http://efa.mvv-muenchen.de/mvv/XSLT_TRIP_REQUEST2?language=de&placeState_origin=empty&type_origin=stopID&name_origin=1260&nameState_origin=empty&sessionID=0
de:09162:1260:1:4,Messestadt Ost,48.1332596522636,11.7039892102978,,,,http://efa.mvv-muenchen.de/mvv/XSLT_TRIP_REQUEST2?language=de&placeState_origin=empty&type_origin=stopID&name_origin=1260&nameState_origin=empty&sessionID=0
de:09162:1260:6:6,Messestadt Ost,48.1336216239986,11.704860410347,,,,http://efa.mvv-muenchen.de/mvv/XSLT_TRIP_REQUEST2?language=de&placeState_origin=empty&type_origin=stopID&name_origin=1260&nameState_origin=empty&sessionID=0
de:09162:1311:3:3,Waldfriedhof,48.1122364409671,11.5016874436012,,,,http://efa.mvv-muenchen.de/mvv/XSLT_TRIP_REQUEST2?language=de&placeState_origin=empty&type_origin=stopID&name_origin=1311&nameState_origin=empty&sessionID=0
de:09162:1312:3:WAS 2,Waldfriedhof (Wendeschleife),48.1123329339057,11.5032040460165,,,,http://efa.mvv-muenchen.de/mvv/XSLT_TRIP_REQUEST2?language=de&placeState_origin=empty&type_origin=stopID&name_origin=1312&nameState_origin=empty&sessionID=0
de:09162:1318:2:2,Diefenbachstraße,48.0803760229558,11.5237371821808,,,,http://efa.mvv-muenchen.de/mvv/XSLT_TRIP_REQUEST2?language=de&placeState_origin=empty&type_origin=stopID&name_origin=1318&nameState_origin=empty&sessionID=0
de:09162:1320:1:1,Solln,48.0790428193754,11.5275744107396,,,,http://efa.mvv-muenchen.de/mvv/XSLT_TRIP_REQUEST2?language=de&placeState_origin=empty&type_origin=stopID&name_origin=1320&nameState_origin=empty&sessionID=0
de:09162:1320:2:2,Solln,48.0791771104785,11.5274255531643,,,,http://efa.mvv-muenchen.de/mvv/XSLT_TRIP_REQUEST2?language=de&placeState_origin=empty&type_origin=stopID&name_origin=1320&nameState_origin=empty&sessionID=0
de:09162:1325:1:1,Sollner Straße,48.0767213006037,11.5250994751792,,,,http://efa.mvv-muenchen.de/mvv/XSLT_TRIP_REQUEST2?language=de&placeState_origin=empty&type_origin=stopID&name_origin=1325&nameState_origin=empty&sessionID=0
de:09162:1325:2:2,Sollner Straße,48.0771179964884,11.5253373949059,,,,http://efa.mvv-muenchen.de/mvv/XSLT_TRIP_REQUEST2?language=de&placeState_origin=empty&type_origin=stopID&name_origin=1325&nameState_origin=empty&sessionID=0
de:09162:1326:3:MEL 1,Melchiorstraße,48.0722414900657,11.520511068521,,,,http://efa.mvv-muenchen.de/mvv/XSLT_TRIP_REQUEST2?language=de&placeState_origin=empty&type_origin=stopID&name_origin=1326&nameState_origin=empty&sessionID=0
de:09162:1326:3:MEL 2,Melchiorstraße,48.0723306385391,11.5203223740398,,,,http://efa.mvv-muenchen.de/mvv/XSLT_TRIP_REQUEST2?language=de&placeState_origin=empty&type_origin=stopID&name_origin=1326&nameState_origin=empty&sessionID=0
de:09162:1329:3:SOW 1,Solln Bf Wendeschleife,48.0814080197814,11.5275527811257,,,,http://efa.mvv-muenchen.de/mvv/XSLT_TRIP_REQUEST2?language=de&placeState_origin=empty&type_origin=stopID&name_origin=1329&nameState_origin=empty&sessionID=0
de:09162:1339:2:2,Siemensallee,48.0902657134101,11.5208135705297,,,,http://efa.mvv-muenchen.de/mvv/XSLT_TRIP_REQUEST2?language=de&placeState_origin=empty&type_origin=stopID&name_origin=1339&nameState_origin=empty&sessionID=0
de:09162:1345:2:2,Marienstern,48.0876790856283,11.5194952619624,,,,http://efa.mvv-muenchen.de/mvv/XSLT_TRIP_REQUEST2?language=de&placeState_origin=empty&type_origin=stopID&name_origin=1345&nameState_origin=empty&sessionID=0
de:09162:1346:4:4,Hofbrunnstraße,48.0834800266724,11.5175612918625,,,,http://efa.mvv-muenchen.de/mvv/XSLT_TRIP_REQUEST2?language=de&placeState_origin=empty&type_origin=stopID&name_origin=1346&nameState_origin=empty&sessionID=0
de:09162:1353:2:2,Allescherstraße,48.0823754300566,11.520094888587,,,,http://efa.mvv-muenchen.de/mvv/XSLT_TRIP_REQUEST2?language=de&placeState_origin=empty&type_origin=stopID&name_origin=1353&nameState_origin=empty&sessionID=0
de:09162:1432:3:ZOE 1,Zöllerstraße,48.1052030474382,11.4752760238061,,,,http://efa.mvv-muenchen.de/mvv/XSLT_TRIP_REQUEST2?language=de&placeState_origin=empty&type_origin=stopID&name_origin=1432&nameState_origin=empty&sessionID=0
de:09162:1432:3:ZOE 2,Zöllerstraße,48.1052114279998,11.4751416620217,,,,http://efa.mvv-muenchen.de/mvv/XSLT_TRIP_REQUEST2?language=de&placeState_origin=empty&type_origin=stopID&name_origin=1432&nameState_origin=empty&sessionID=0
de:09162:1472:1:1,Klinikum Großhadern Ost,48.1108539677786,11.4739696513804,,,,http://efa.mvv-muenchen.de/mvv/XSLT_TRIP_REQUEST2?language=de&placeState_origin=empty&type_origin=stopID&name_origin=1472&nameState_origin=empty&sessionID=0
de:09162:1472:2:2,Klinikum Großhadern Ost,48.1116090757369,11.4738948065116,,,,http://efa.mvv-muenchen.de/mvv/XSLT_TRIP_REQUEST2?language=de&placeState_origin=empty&type_origin=stopID&name_origin=1472&nameState_origin=empty&sessionID=0
de:09162:1474:1:1,Klinikum Großhadern Nord,48.1122767688681,11.4665554915469,,,,http://efa.mvv-muenchen.de/mvv/XSLT_TRIP_REQUEST2?language=de&placeState_origin=empty&type_origin=stopID&name_origin=1474&nameState_origin=empty&sessionID=0
de:09162:1474:1:2,Klinikum Großhadern Nord,48.1124142780275,11.4671181103467,,,,http://efa.mvv-muenchen.de/mvv/XSLT_TRIP_REQUEST2?language=de&placeState_origin=empty&type_origin=stopID&name_origin=1474&nameState_origin=empty&sessionID=0
de:09162:1500:2:4,Fürstenried West,48.0884208279401,11.4811380486783,,,,http://efa.mvv-muenchen.de/mvv/XSLT_TRIP_REQUEST2?language=de&placeState_origin=empty&type_origin=stopID&name_origin=1500&nameState_origin=empty&sessionID=0
de:09162:1500:2:5,Fürstenried West,48.0885099110381,11.4809492272899,,,,http://efa.mvv-muenchen.de/mvv/XSLT_TRIP_REQUEST2?language=de&placeState_origin=empty&type_origin=stopID&name_origin=1500&nameState_origin=empty&sessionID=0
de:09162:1502:2:2,Kornwegerstraße,48.1120477045508,11.4955251563303,,,,http://efa.mvv-muenchen.de/mvv/XSLT_TRIP_REQUEST2?language=de&placeState_origin=empty&type_origin=stopID&name_origin=1502&nameState_origin=empty&sessionID=0
de:09162:1502:3:3,Kornwegerstraße,48.1124011768406,11.4940981706518,,,,http://efa.mvv-muenchen.de/mvv/XSLT_TRIP_REQUEST2?language=de&placeState_origin=empty&type_origin=stopID&name_origin=1502&nameState_origin=empty&sessionID=0
de:09162:1530:3:3,Großhadern,48.1155876823019,11.4766343193944,,,,http://efa.mvv-muenchen.de/mvv/XSLT_TRIP_REQUEST2?language=de&placeState_origin=empty&type_origin=stopID&name_origin=1530&nameState_origin=empty&sessionID=0
de:09162:1530:4:4,Großhadern,48.1153979120701,11.4764347898686,,,,http://efa.mvv-muenchen.de/mvv/XSLT_TRIP_REQUEST2?language=de&placeState_origin=empty&type_origin=stopID&name_origin=1530&nameState_origin=empty&sessionID=0
de:09162:1540:1:1,Klinikum Großhadern,48.108855793763,11.4736140200135,,,,http://efa.mvv-muenchen.de/mvv/XSLT_TRIP_REQUEST2?language=de&placeState_origin=empty&type_origin=stopID&name_origin=1540&nameState_origin=empty&sessionID=0
de:09162:1540:2:2,Klinikum Großhadern,48.1089120855223,11.474123733425,,,,http://efa.mvv-muenchen.de/mvv/XSLT_TRIP_REQUEST2?language=de&placeState_origin=empty&type_origin=stopID&name_origin=1540&nameState_origin=empty&sessionID=0
de:09162:1540:3:3,Klinikum Großhadern,48.1091534854398,11.4738124135503,,,,http://efa.mvv-muenchen.de/mvv/XSLT_TRIP_REQUEST2?language=de&placeState_origin=empty&type_origin=stopID&name_origin=1540&nameState_origin=empty&sessionID=0
de:09162:1562:3:SAA 1,Saalburgstraße,48.113880792928,11.4870329586384,,,,http://efa.mvv-muenchen.de/mvv/XSLT_TRIP_REQUEST2?language=de&placeState_origin=empty&type_origin=stopID&name_origin=1562&nameState_origin=empty&sessionID=0
de:09162:1562:3:SAA 2,Saalburgstraße,48.1135434236664,11.4880166901011,,,,http://efa.mvv-muenchen.de/mvv/XSLT_TRIP_REQUEST2?language=de&placeState_origin=empty&type_origin=stopID&name_origin=1562&nameState_origin=empty&sessionID=0
de:09162:1563:1:1,Platanenstraße,48.1145039196625,11.4835886636498,,,,http://efa.mvv-muenchen.de/mvv/XSLT_TRIP_REQUEST2?language=de&placeState_origin=empty&type_origin=stopID&name_origin=1563&nameState_origin=empty&sessionID=0
de:09162:1563:2:2,Platanenstraße,48.1147257902259,11.4829283662554,,,,http://efa.mvv-muenchen.de/mvv/XSLT_TRIP_REQUEST2?language=de&placeState_origin=empty&type_origin=stopID&name_origin=1563&nameState_origin=empty&sessionID=0
de:09162:1572:3:ZIN 1,Zinckgrafstraße,48.1150542178968,11.47207345551,,,,http://efa.mvv-muenchen.de/mvv/XSLT_TRIP_REQUEST2?language=de&placeState_origin=empty&type_origin=stopID&name_origin=1572&nameState_origin=empty&sessionID=0
de:09162:1572:3:ZIN 2,Zinckgrafstraße,48.1150503941792,11.4712408208703,,,,http://efa.mvv-muenchen.de/mvv/XSLT_TRIP_REQUEST2?language=de&placeState_origin=empty&type_origin=stopID&name_origin=1572&nameState_origin=empty&sessionID=0
de:09162:1574:3:WHU 1,Waldhüterstraße,48.114672770321,11.4673633852605,,,,http://efa.mvv-muenchen.de/mvv/XSLT_TRIP_REQUEST2?language=de&placeState_origin=empty&type_origin=stopID&name_origin=1574&nameState_origin=empty&sessionID=0
de:09162:1574:3:WHU 2,Waldhüterstraße,48.1146975723206,11.4668930746074,,,,http://efa.mvv-muenchen.de/mvv/XSLT_TRIP_REQUEST2?language=de&placeState_origin=empty&type_origin=stopID&name_origin=1574&nameState_origin=empty&sessionID=0
de:09162:1622:2:2,Pasinger Marienplatz,48.1462820612678,11.4590946839002,,,,http://efa.mvv-muenchen.de/mvv/XSLT_TRIP_REQUEST2?language=de&placeState_origin=empty&type_origin=stopID&name_origin=1622&nameState_origin=empty&sessionID=0
de:09162:1622:9:9,Pasinger Marienplatz,48.1463368401158,11.4592688079369,,,,http://efa.mvv-muenchen.de/mvv/XSLT_TRIP_REQUEST2?language=de&placeState_origin=empty&type_origin=stopID&name_origin=1622&nameState_origin=empty&sessionID=0
de:09162:1623:3:ENG 1,Engelbertstraße,48.1438755026968,11.4579642964696,,,,http://efa.mvv-muenchen.de/mvv/XSLT_TRIP_REQUEST2?language=de&placeState_origin=empty&type_origin=stopID&name_origin=1623&nameState_origin=empty&sessionID=0
de:09162:1623:3:ENG 2,Engelbertstraße,48.1435877279437,11.4579673231053,,,,http://efa.mvv-muenchen.de/mvv/XSLT_TRIP_REQUEST2?language=de&placeState_origin=empty&type_origin=stopID&name_origin=1623&nameState_origin=empty&sessionID=0
de:09162:1624:4:4,Rathaus Pasing,48.1466049509327,11.4608248554915,,,,http://efa.mvv-muenchen.de/mvv/XSLT_TRIP_REQUEST2?language=de&placeState_origin=empty&type_origin=stopID&name_origin=1624&nameState_origin=empty&sessionID=0
de:09162:1626:2:2,Planegger Straße,48.1405328394761,11.4566691993158,,,,http://efa.mvv-muenchen.de/mvv/XSLT_TRIP_REQUEST2?language=de&placeState_origin=empty&type_origin=stopID&name_origin=1626&nameState_origin=empty&sessionID=0
de:09162:1626:4:4,Planegger Straße,48.1400291700134,11.4566610718725,,,,http://efa.mvv-muenchen.de/mvv/XSLT_TRIP_REQUEST2?language=de&placeState_origin=empty&type_origin=stopID&name_origin=1626&nameState_origin=empty&sessionID=0
de:09162:1629:1:1,Kraillinger Weg,48.1384932499334,11.4551723918399,,,,http://efa.mvv-muenchen.de/mvv/XSLT_TRIP_REQUEST2?language=de&placeState_origin=empty&type_origin=stopID&name_origin=1629&nameState_origin=empty&sessionID=0
de:09162:1629:2:2,Kraillinger Weg,48.1382125586533,11.4547722706435,,,,http://efa.mvv-muenchen.de/mvv/XSLT_TRIP_REQUEST2?language=de&placeState_origin=empty&type_origin=stopID&name_origin=1629&nameState_origin=empty&sessionID=0
de:09162:1630:1:1,Siedlung am Haidelweg,48.1358768784021,11.4534265373586,,,,http://efa.mvv-muenchen.de/mvv/XSLT_TRIP_REQUEST2?language=de&placeState_origin=empty&type_origin=stopID&name_origin=1630&nameState_origin=empty&sessionID=0
de:09162:1630:2:2,Siedlung am Haidelweg,48.1359750988754,11.4532777034481,,,,http://efa.mvv-muenchen.de/mvv/XSLT_TRIP_REQUEST2?language=de&placeState_origin=empty&type_origin=stopID&name_origin=1630&nameState_origin=empty&sessionID=0
de:09162:1712:2:2,Altenburgstraße,48.1475138129983,11.4220312645377,,,,http://efa.mvv-muenchen.de/mvv/XSLT_TRIP_REQUEST2?language=de&placeState_origin=empty&type_origin=stopID&name_origin=1712&nameState_origin=empty&sessionID=0
de:09162:1712:3:3,Altenburgstraße,48.14707039187,11.4214852562405,,,,http://efa.mvv-muenchen.de/mvv/XSLT_TRIP_REQUEST2?language=de&placeState_origin=empty&type_origin=stopID&name_origin=1712&nameState_origin=empty&sessionID=0
de:09162:1714:3:HHN 1,Hohensteinstraße,48.1458416733192,11.4221575260768,,,,http://efa.mvv-muenchen.de/mvv/XSLT_TRIP_REQUEST2?language=de&placeState_origin=empty&type_origin=stopID&name_origin=1714&nameState_origin=empty&sessionID=0
de:09162:1714:3:HHN 2,Hohensteinstraße,48.1459503304409,11.4223041288495,,,,http://efa.mvv-muenchen.de/mvv/XSLT_TRIP_REQUEST2?language=de&placeState_origin=empty&type_origin=stopID&name_origin=1714&nameState_origin=empty&sessionID=0
de:09162:1716:1:1,Veldensteinstraße,48.1405957638894,11.4251993352499,,,,http://efa.mvv-muenchen.de/mvv/XSLT_TRIP_REQUEST2?language=de&placeState_origin=empty&type_origin=stopID&name_origin=1716&nameState_origin=empty&sessionID=0
de:09162:1716:1:2,Veldensteinstraße,48.1404961704566,11.4250660772801,,,,http://efa.mvv-muenchen.de/mvv/XSLT_TRIP_REQUEST2?language=de&placeState_origin=empty&type_origin=stopID&name_origin=1716&nameState_origin=empty&sessionID=0
de:09162:1730:1:1,Neuaubing,48.1435824038666,11.4235669401625,,,,http://efa.mvv-muenchen.de/mvv/XSLT_TRIP_REQUEST2?language=de&placeState_origin=empty&type_origin=stopID&name_origin=1730&nameState_origin=empty&sessionID=0
de:09162:1744:1:1,Sumpfmeisenweg,48.1796070897344,11.3984209381385,,,,http://efa.mvv-muenchen.de/mvv/XSLT_TRIP_REQUEST2?language=de&placeState_origin=empty&type_origin=stopID&name_origin=1744&nameState_origin=empty&sessionID=0
de:09162:1744:2:2,Sumpfmeisenweg,48.1797691009376,11.3984459386815,,,,http://efa.mvv-muenchen.de/mvv/XSLT_TRIP_REQUEST2?language=de&placeState_origin=empty&type_origin=stopID&name_origin=1744&nameState_origin=empty&sessionID=0
de:09162:1752:3:PIR 1,Pirolstraße,48.1798979766637,11.3955801847188,,,,http://efa.mvv-muenchen.de/mvv/XSLT_TRIP_REQUEST2?language=de&placeState_origin=empty&type_origin=stopID&name_origin=1752&nameState_origin=empty&sessionID=0
de:09162:1752:3:PIR 2,Pirolstraße,48.1797014060605,11.3958245414492,,,,http://efa.mvv-muenchen.de/mvv/XSLT_TRIP_REQUEST2?language=de&placeState_origin=empty&type_origin=stopID&name_origin=1752&nameState_origin=empty&sessionID=0
de:09162:1754:1:1,Krähenweg,48.181214793481,11.3911808285441,,,,http://efa.mvv-muenchen.de/mvv/XSLT_TRIP_REQUEST2?language=de&placeState_origin=empty&type_origin=stopID&name_origin=1754&nameState_origin=empty&sessionID=0
de:09162:1754:1:2,Krähenweg,48.1813232761909,11.3912871255227,,,,http://efa.mvv-muenchen.de/mvv/XSLT_TRIP_REQUEST2?language=de&placeState_origin=empty&type_origin=stopID&name_origin=1754&nameState_origin=empty&sessionID=0
de:09162:1810:3:3,Lochhausen,48.1771180684994,11.4074994862162,,,,http://efa.mvv-muenchen.de/mvv/XSLT_TRIP_REQUEST2?language=de&placeState_origin=empty&type_origin=stopID&name_origin=1810&nameState_origin=empty&sessionID=0
de:09162:1857:1:1,Krauss-Maffei-Straße,48.1936604220976,11.4709848833577,,,,http://efa.mvv-muenchen.de/mvv/XSLT_TRIP_REQUEST2?language=de&placeState_origin=empty&type_origin=stopID&name_origin=1857&nameState_origin=empty&sessionID=0
de:09162:1857:2:2,Krauss-Maffei-Straße,48.1935149276573,11.4706366607914,,,,http://efa.mvv-muenchen.de/mvv/XSLT_TRIP_REQUEST2?language=de&placeState_origin=empty&type_origin=stopID&name_origin=1857&nameState_origin=empty&sessionID=0
de:09162:1911:1:1,Allach Bahnhof Ost,48.1928393479167,11.4684511739669,,,,http://efa.mvv-muenchen.de/mvv/XSLT_TRIP_REQUEST2?language=de&placeState_origin=empty&type_origin=stopID&name_origin=1911&nameState_origin=empty&sessionID=0
de:09162:1956:1:1,Vogelloh,48.2135381031453,11.4676182285384,,,,http://efa.mvv-muenchen.de/mvv/XSLT_TRIP_REQUEST2?language=de&placeState_origin=empty&type_origin=stopID&name_origin=1956&nameState_origin=empty&sessionID=0
de:09162:1958:1:1,Allacher Forstweg,48.2107776682716,11.4815191593478,,,,http://efa.mvv-muenchen.de/mvv/XSLT_TRIP_REQUEST2?language=de&placeState_origin=empty&type_origin=stopID&name_origin=1958&nameState_origin=empty&sessionID=0
de:09162:1976:1:1,Karlsfelder Straße,48.2161342737458,11.4807653922819,,,,http://efa.mvv-muenchen.de/mvv/XSLT_TRIP_REQUEST2?language=de&placeState_origin=empty&type_origin=stopID&name_origin=1976&nameState_origin=empty&sessionID=0
de:09162:1976:2:2,Karlsfelder Straße,48.2163860743947,11.4807628490257,,,,http://efa.mvv-muenchen.de/mvv/XSLT_TRIP_REQUEST2?language=de&placeState_origin=empty&type_origin=stopID&name_origin=1976&nameState_origin=empty&sessionID=0
de:09162:2651:1:1,"Flughafen, Parkpl. P41/Novotel",48.3552220595374,11.7583136122365,,,,http://efa.mvv-muenchen.de/mvv/XSLT_TRIP_REQUEST2?language=de&placeState_origin=empty&type_origin=stopID&name_origin=2651&nameState_origin=empty&sessionID=0
de:09162:2651:2:2,"Flughafen, Parkpl. P41/Novotel",48.3550872218215,11.7583412347041,,,,http://efa.mvv-muenchen.de/mvv/XSLT_TRIP_REQUEST2?language=de&placeState_origin=empty&type_origin=stopID&name_origin=2651&nameState_origin=empty&sessionID=0
de:09162:2719:1:1,"Flughafen, Terminalbereich A/B",48.3564793031109,11.7846470063595,,,,http://efa.mvv-muenchen.de/mvv/XSLT_TRIP_REQUEST2?language=de&placeState_origin=empty&type_origin=stopID&name_origin=2719&nameState_origin=empty&sessionID=0
de:09162:2726:1:16,"Flughafen, Terminal 2",48.3561741796186,11.7898702442775,,,,http://efa.mvv-muenchen.de/mvv/XSLT_TRIP_REQUEST2?language=de&placeState_origin=empty&type_origin=stopID&name_origin=2726&nameState_origin=empty&sessionID=0
de:09162:2860:1:1,"Flughafen, Besucherpark",48.3523914149268,11.7636969534371,,,,http://efa.mvv-muenchen.de/mvv/XSLT_TRIP_REQUEST2?language=de&placeState_origin=empty&type_origin=stopID&name_origin=2860&nameState_origin=empty&sessionID=0
de:09162:2860:2:2,"Flughafen, Besucherpark",48.3530765082271,11.7644898574445,,,,http://efa.mvv-muenchen.de/mvv/XSLT_TRIP_REQUEST2?language=de&placeState_origin=empty&type_origin=stopID&name_origin=2860&nameState_origin=empty&sessionID=0
de:09162:3239:1:4,"Flughafen, MAC/Terminal 1",48.3531721512753,11.7858752420763,,,,http://efa.mvv-muenchen.de/mvv/XSLT_TRIP_REQUEST2?language=de&placeState_origin=empty&type_origin=stopID&name_origin=3239&nameState_origin=empty&sessionID=0
de:09162:414:1:1,Sudetendeutsche Straße,48.1961452609562,11.578341796529,,,,http://efa.mvv-muenchen.de/mvv/XSLT_TRIP_REQUEST2?language=de&placeState_origin=empty&type_origin=stopID&name_origin=414&nameState_origin=empty&sessionID=0
de:09162:414:2:2,Sudetendeutsche Straße,48.1961727819198,11.5784895362909,,,,http://efa.mvv-muenchen.de/mvv/XSLT_TRIP_REQUEST2?language=de&placeState_origin=empty&type_origin=stopID&name_origin=414&nameState_origin=empty&sessionID=0
de:09162:436:1:1,Neuherbergstraße,48.210027338666,11.5872832270965,,,,http://efa.mvv-muenchen.de/mvv/XSLT_TRIP_REQUEST2?language=de&placeState_origin=empty&type_origin=stopID&name_origin=436&nameState_origin=empty&sessionID=0
de:09162:436:3:3,Neuherbergstraße,48.210008049779,11.5869200966047,,,,http://efa.mvv-muenchen.de/mvv/XSLT_TRIP_REQUEST2?language=de&placeState_origin=empty&type_origin=stopID&name_origin=436&nameState_origin=empty&sessionID=0
de:09162:437:1:1,Anton-Will-Straße,48.2053012645422,11.5860026743753,,,,http://efa.mvv-muenchen.de/mvv/XSLT_TRIP_REQUEST2?language=de&placeState_origin=empty&type_origin=stopID&name_origin=437&nameState_origin=empty&sessionID=0
de:09162:437:2:2,Anton-Will-Straße,48.205995468602,11.5864814300746,,,,http://efa.mvv-muenchen.de/mvv/XSLT_TRIP_REQUEST2?language=de&placeState_origin=empty&type_origin=stopID&name_origin=437&nameState_origin=empty&sessionID=0
de:09162:438:2:2,Heidemannstraße,48.2017926259462,11.5856542279608,,,,http://efa.mvv-muenchen.de/mvv/XSLT_TRIP_REQUEST2?language=de&placeState_origin=empty&type_origin=stopID&name_origin=438&nameState_origin=empty&sessionID=0
de:09162:438:3:3,Heidemannstraße,48.2006124546893,11.5850852724746,,,,http://efa.mvv-muenchen.de/mvv/XSLT_TRIP_REQUEST2?language=de&placeState_origin=empty&type_origin=stopID&name_origin=438&nameState_origin=empty&sessionID=0
de:09162:439:1:1,Gundelkoferstraße,48.19614092412,11.5845698207905,,,,http://efa.mvv-muenchen.de/mvv/XSLT_TRIP_REQUEST2?language=de&placeState_origin=empty&type_origin=stopID&name_origin=439&nameState_origin=empty&sessionID=0
de:09162:439:3:3,Gundelkoferstraße,48.1959013177059,11.5829710484594,,,,http://efa.mvv-muenchen.de/mvv/XSLT_TRIP_REQUEST2?language=de&placeState_origin=empty&type_origin=stopID&name_origin=439&nameState_origin=empty&sessionID=0
de:09162:451:1:1,Kollwitzstraße,48.1985796397906,11.5849940484247,,,,http://efa.mvv-muenchen.de/mvv/XSLT_TRIP_REQUEST2?language=de&placeState_origin=empty&type_origin=stopID&name_origin=451&nameState_origin=empty&sessionID=0
de:09162:451:2:2,Kollwitzstraße,48.197948719981,11.5846090332355,,,,http://efa.mvv-muenchen.de/mvv/XSLT_TRIP_REQUEST2?language=de&placeState_origin=empty&type_origin=stopID&name_origin=451&nameState_origin=empty&sessionID=0
de:09162:5:3:2,"München, Ostbahnhof",48.1279858101205,11.6040066080875,,,,http://efa.mvv-muenchen.de/mvv/XSLT_TRIP_REQUEST2?language=de&placeState_origin=empty&type_origin=stopID&name_origin=5&nameState_origin=empty&sessionID=0
de:09162:540:3:3,Studentenstadt,48.1844627954946,11.6088710448108,,,,http://efa.mvv-muenchen.de/mvv/XSLT_TRIP_REQUEST2?language=de&placeState_origin=empty&type_origin=stopID&name_origin=540&nameState_origin=empty&sessionID=0
de:09162:540:4:4,Studentenstadt,48.1842912870083,11.6086840719072,,,,http://efa.mvv-muenchen.de/mvv/XSLT_TRIP_REQUEST2?language=de&placeState_origin=empty&type_origin=stopID&name_origin=540&nameState_origin=empty&sessionID=0
de:09162:600:3:3,St. Emmeram,48.1768098286686,11.6307659869744,,,,http://efa.mvv-muenchen.de/mvv/XSLT_TRIP_REQUEST2?language=de&placeState_origin=empty&type_origin=stopID&name_origin=600&nameState_origin=empty&sessionID=0
de:09162:760:1:1,Am Hart,48.1967409493685,11.5716111463648,,,,http://efa.mvv-muenchen.de/mvv/XSLT_TRIP_REQUEST2?language=de&placeState_origin=empty&type_origin=stopID&name_origin=760&nameState_origin=empty&sessionID=0
de:09162:760:1:4,Am Hart,48.196859209679,11.5719733541821,,,,http://efa.mvv-muenchen.de/mvv/XSLT_TRIP_REQUEST2?language=de&placeState_origin=empty&type_origin=stopID&name_origin=760&nameState_origin=empty&sessionID=0
de:09162:813:1:1,Am Messesee,48.1358407908852,11.6903238314922,,,,http://efa.mvv-muenchen.de/mvv/XSLT_TRIP_REQUEST2?language=de&placeState_origin=empty&type_origin=stopID&name_origin=813&nameState_origin=empty&sessionID=0
de:09162:813:2:2,Am Messesee,48.1351659722778,11.6902069629429,,,,http://efa.mvv-muenchen.de/mvv/XSLT_TRIP_REQUEST2?language=de&placeState_origin=empty&type_origin=stopID&name_origin=813&nameState_origin=empty&sessionID=0
de:09162:966:2:2,Waldheimplatz,48.085066628966,11.6750045193155,,,,http://efa.mvv-muenchen.de/mvv/XSLT_TRIP_REQUEST2?language=de&placeState_origin=empty&type_origin=stopID&name_origin=966&nameState_origin=empty&sessionID=0
de:09162:966:5:6,Waldheimplatz,48.085381015823,11.6748683177302,,,,http://efa.mvv-muenchen.de/mvv/XSLT_TRIP_REQUEST2?language=de&placeState_origin=empty&type_origin=stopID&name_origin=966&nameState_origin=empty&sessionID=0
de:09162:967:1:1,Waldperlach,48.0823703247745,11.6724445119215,,,,http://efa.mvv-muenchen.de/mvv/XSLT_TRIP_REQUEST2?language=de&placeState_origin=empty&type_origin=stopID&name_origin=967&nameState_origin=empty&sessionID=0
de:09162:967:3:3,Waldperlach,48.0819844902647,11.6727556533069,,,,http://efa.mvv-muenchen.de/mvv/XSLT_TRIP_REQUEST2?language=de&placeState_origin=empty&type_origin=stopID&name_origin=967&nameState_origin=empty&sessionID=0
de:09162:968:3:SAL 1,Salzmannstraße,48.0812586775212,11.6768806139083,,,,http://efa.mvv-muenchen.de/mvv/XSLT_TRIP_REQUEST2?language=de&placeState_origin=empty&type_origin=stopID&name_origin=968&nameState_origin=empty&sessionID=0
de:09162:968:3:SAL 2,Salzmannstraße,48.0812403517776,11.6767599360417,,,,http://efa.mvv-muenchen.de/mvv/XSLT_TRIP_REQUEST2?language=de&placeState_origin=empty&type_origin=stopID&name_origin=968&nameState_origin=empty&sessionID=0
de:09162:970:3:OHR 1,Otto-Hahn-Ring,48.0922031875029,11.6490508590773,,,,http://efa.mvv-muenchen.de/mvv/XSLT_TRIP_REQUEST2?language=de&placeState_origin=empty&type_origin=stopID&name_origin=970&nameState_origin=empty&sessionID=0
de:09162:970:3:OHR 2,Otto-Hahn-Ring,48.092257147156,11.6490504925181,,,,http://efa.mvv-muenchen.de/mvv/XSLT_TRIP_REQUEST2?language=de&placeState_origin=empty&type_origin=stopID&name_origin=970&nameState_origin=empty&sessionID=0
de:09162:979:1:1,Sigmund-Riefler-Bogen,48.136930511474,11.7153080378443,,,,http://efa.mvv-muenchen.de/mvv/XSLT_TRIP_REQUEST2?language=de&placeState_origin=empty&type_origin=stopID&name_origin=979&nameState_origin=empty&sessionID=0
de:09162:979:2:2,Sigmund-Riefler-Bogen,48.1363907163769,11.7152304014992,,,,http://efa.mvv-muenchen.de/mvv/XSLT_TRIP_REQUEST2?language=de&placeState_origin=empty&type_origin=stopID&name_origin=979&nameState_origin=empty&sessionID=0
de:09173:4723:0:1,"Geretsried, Sperlingstraße",47.8787927656734,11.4703980438373,,,,http://efa.mvv-muenchen.de/mvv/XSLT_TRIP_REQUEST2?language=de&placeState_origin=empty&type_origin=stopID&name_origin=4723&nameState_origin=empty&sessionID=0
de:09173:4723:0:2,"Geretsried, Sperlingstraße",47.8788465412576,11.4703573892035,,,,http://efa.mvv-muenchen.de/mvv/XSLT_TRIP_REQUEST2?language=de&placeState_origin=empty&type_origin=stopID&name_origin=4723&nameState_origin=empty&sessionID=0
de:09173:4724:0:1,"Geretsried, Dompfaffenweg",47.8794706853949,11.4750569989594,,,,http://efa.mvv-muenchen.de/mvv/XSLT_TRIP_REQUEST2?language=de&placeState_origin=empty&type_origin=stopID&name_origin=4724&nameState_origin=empty&sessionID=0
de:09173:4724:0:2,"Geretsried, Dompfaffenweg",47.87951540818,11.4750030707455,,,,http://efa.mvv-muenchen.de/mvv/XSLT_TRIP_REQUEST2?language=de&placeState_origin=empty&type_origin=stopID&name_origin=4724&nameState_origin=empty&sessionID=0
de:09173:4725:0:1,"Geretsried, Rotkehlchenweg",47.8766252953654,11.4704067399543,,,,http://efa.mvv-muenchen.de/mvv/XSLT_TRIP_REQUEST2?language=de&placeState_origin=empty&type_origin=stopID&name_origin=4725&nameState_origin=empty&sessionID=0
de:09173:4725:0:2,"Geretsried, Rotkehlchenweg",47.8766158091923,11.4702998886535,,,,http://efa.mvv-muenchen.de/mvv/XSLT_TRIP_REQUEST2?language=de&placeState_origin=empty&type_origin=stopID&name_origin=4725&nameState_origin=empty&sessionID=0
de:09173:4726:0:1,"Geretsried, Banater Str.",47.8819905236147,11.4637072925976,,,,http://efa.mvv-muenchen.de/mvv/XSLT_TRIP_REQUEST2?language=de&placeState_origin=empty&type_origin=stopID&name_origin=4726&nameState_origin=empty&sessionID=0
de:09173:4726:0:2,"Geretsried, Banater Str.",47.8821081236039,11.4638531489649,,,,http://efa.mvv-muenchen.de/mvv/XSLT_TRIP_REQUEST2?language=de&placeState_origin=empty&type_origin=stopID&name_origin=4726&nameState_origin=empty&sessionID=0
de:09173:4727:0:1,"Geretsried, Chamalieres Platz",47.8593051657692,11.4806995393074,,,,http://efa.mvv-muenchen.de/mvv/XSLT_TRIP_REQUEST2?language=de&placeState_origin=empty&type_origin=stopID&name_origin=4727&nameState_origin=empty&sessionID=0
de:09173:4727:0:2,"Geretsried, Chamalieres Platz",47.859413328551,11.4807519165686,,,,http://efa.mvv-muenchen.de/mvv/XSLT_TRIP_REQUEST2?language=de&placeState_origin=empty&type_origin=stopID&name_origin=4727&nameState_origin=empty&sessionID=0
de:09173:4728:0:1,"Geretsried, Kochelseeweg",47.8460838677241,11.4786402356684,,,,http://efa.mvv-muenchen.de/mvv/XSLT_TRIP_REQUEST2?language=de&placeState_origin=empty&type_origin=stopID&name_origin=4728&nameState_origin=empty&sessionID=0
de:09173:4729:0:1,"Geretsried, Steiner Ring Süd",47.8440397450402,11.4780862122252,,,,http://efa.mvv-muenchen.de/mvv/XSLT_TRIP_REQUEST2?language=de&placeState_origin=empty&type_origin=stopID&name_origin=4729&nameState_origin=empty&sessionID=0
de:09173:4730:0:1,"Geretsried, St.-Hubertus-Str.",47.8640182509985,11.4787813845875,,,,http://efa.mvv-muenchen.de/mvv/XSLT_TRIP_REQUEST2?language=de&placeState_origin=empty&type_origin=stopID&name_origin=4730&nameState_origin=empty&sessionID=0
de:09173:4730:0:2,"Geretsried, St.-Hubertus-Str.",47.8640355105037,11.4786208287974,,,,http://efa.mvv-muenchen.de/mvv/XSLT_TRIP_REQUEST2?language=de&placeState_origin=empty&type_origin=stopID&name_origin=4730&nameState_origin=empty&sessionID=0
de:09173:4731:0:1,"Geretsried, Gustav-Adolf-Str",47.8534217889562,11.4945082484485,,,,http://efa.mvv-muenchen.de/mvv/XSLT_TRIP_REQUEST2?language=de&placeState_origin=empty&type_origin=stopID&name_origin=4731&nameState_origin=empty&sessionID=0
de:09173:4731:0:2,"Geretsried, Gustav-Adolf-Str",47.8533139260834,11.4945226580458,,,,http://efa.mvv-muenchen.de/mvv/XSLT_TRIP_REQUEST2?language=de&placeState_origin=empty&type_origin=stopID&name_origin=4731&nameState_origin=empty&sessionID=0
de:09173:4732:0:1,"Geretsried, Nelkenweg",47.8849287198293,11.465040799763,,,,http://efa.mvv-muenchen.de/mvv/XSLT_TRIP_REQUEST2?language=de&placeState_origin=empty&type_origin=stopID&name_origin=4732&nameState_origin=empty&sessionID=0
de:09173:4733:0:1,"Geretsried, Maiglöckchenweg",47.8856985578288,11.4681349117092,,,,http://efa.mvv-muenchen.de/mvv/XSLT_TRIP_REQUEST2?language=de&placeState_origin=empty&type_origin=stopID&name_origin=4733&nameState_origin=empty&sessionID=0
de:09173:4734:0:1,"Geretsried, Rosenweg",47.886262264261,11.4714050334354,,,,http://efa.mvv-muenchen.de/mvv/XSLT_TRIP_REQUEST2?language=de&placeState_origin=empty&type_origin=stopID&name_origin=4734&nameState_origin=empty&sessionID=0
de:09173:4735:0:1,"Geretsried, Graslitzer Straße",47.8771545192125,11.4623534417788,,,,http://efa.mvv-muenchen.de/mvv/XSLT_TRIP_REQUEST2?language=de&placeState_origin=empty&type_origin=stopID&name_origin=4735&nameState_origin=empty&sessionID=0
de:09173:4735:0:2,"Geretsried, Graslitzer Straße",47.8771271013153,11.4622601448192,,,,http://efa.mvv-muenchen.de/mvv/XSLT_TRIP_REQUEST2?language=de&placeState_origin=empty&type_origin=stopID&name_origin=4735&nameState_origin=empty&sessionID=0
de:09173:4736:1:1,"Geretsried, Rathaus",47.8746321633295,11.4653338301377,,,,http://efa.mvv-muenchen.de/mvv/XSLT_TRIP_REQUEST2?language=de&placeState_origin=empty&type_origin=stopID&name_origin=4736&nameState_origin=empty&sessionID=0
de:09173:4736:1:2,"Geretsried, Rathaus",47.8745870098118,11.4652941902675,,,,http://efa.mvv-muenchen.de/mvv/XSLT_TRIP_REQUEST2?language=de&placeState_origin=empty&type_origin=stopID&name_origin=4736&nameState_origin=empty&sessionID=0
de:09173:4737:0:1,"Geretsried, Erikaweg",47.8834307607949,11.4717413254304,,,,http://efa.mvv-muenchen.de/mvv/XSLT_TRIP_REQUEST2?language=de&placeState_origin=empty&type_origin=stopID&name_origin=4737&nameState_origin=empty&sessionID=0
de:09173:4739:0:1,"Geretsried, Geltinger Weg",47.8767077708913,11.4649114438268,,,,http://efa.mvv-muenchen.de/mvv/XSLT_TRIP_REQUEST2?language=de&placeState_origin=empty&type_origin=stopID&name_origin=4739&nameState_origin=empty&sessionID=0
de:09173:4739:0:2,"Geretsried, Geltinger Weg",47.8766892862169,11.4648046859212,,,,http://efa.mvv-muenchen.de/mvv/XSLT_TRIP_REQUEST2?language=de&placeState_origin=empty&type_origin=stopID&name_origin=4739&nameState_origin=empty&sessionID=0
de:09173:4741:0:1,"Geretsried, Alpenstraße",47.8754618236309,11.4755787029051,,,,http://efa.mvv-muenchen.de/mvv/XSLT_TRIP_REQUEST2?language=de&placeState_origin=empty&type_origin=stopID&name_origin=4741&nameState_origin=empty&sessionID=0
de:09173:4741:0:2,"Geretsried, Alpenstraße",47.8754801763434,11.4756587270567,,,,http://efa.mvv-muenchen.de/mvv/XSLT_TRIP_REQUEST2?language=de&placeState_origin=empty&type_origin=stopID&name_origin=4741&nameState_origin=empty&sessionID=0
de:09173:4742:0:1,"Geretsried, Zugspitzweg",47.8731811536441,11.4764037456384,,,,http://efa.mvv-muenchen.de/mvv/XSLT_TRIP_REQUEST2?language=de&placeState_origin=empty&type_origin=stopID&name_origin=4742&nameState_origin=empty&sessionID=0
de:09173:4742:0:2,"Geretsried, Zugspitzweg",47.8732891963738,11.4764293936623,,,,http://efa.mvv-muenchen.de/mvv/XSLT_TRIP_REQUEST2?language=de&placeState_origin=empty&type_origin=stopID&name_origin=4742&nameState_origin=empty&sessionID=0
de:09173:4743:0:2,"Geretsried, Isarau-Stadion",47.8702528689462,11.4752435611424,,,,http://efa.mvv-muenchen.de/mvv/XSLT_TRIP_REQUEST2?language=de&placeState_origin=empty&type_origin=stopID&name_origin=4743&nameState_origin=empty&sessionID=0
de:09173:4744:0:1,"Geretsried, Neuer Platz",47.8580071191913,11.4780664754619,,,,http://efa.mvv-muenchen.de/mvv/XSLT_TRIP_REQUEST2?language=de&placeState_origin=empty&type_origin=stopID&name_origin=4744&nameState_origin=empty&sessionID=0
de:09173:4744:0:2,"Geretsried, Neuer Platz",47.8584032552367,11.4781560505183,,,,http://efa.mvv-muenchen.de/mvv/XSLT_TRIP_REQUEST2?language=de&placeState_origin=empty&type_origin=stopID&name_origin=4744&nameState_origin=empty&sessionID=0
de:09173:4746:0:1,"Geretsried, Karl-Lederer-Schule",47.8562263272892,11.4800487241841,,,,http://efa.mvv-muenchen.de/mvv/XSLT_TRIP_REQUEST2?language=de&placeState_origin=empty&type_origin=stopID&name_origin=4746&nameState_origin=empty&sessionID=0
de:09173:4746:0:2,"Geretsried, Karl-Lederer-Schule",47.8560916673973,11.4801035218208,,,,http://efa.mvv-muenchen.de/mvv/XSLT_TRIP_REQUEST2?language=de&placeState_origin=empty&type_origin=stopID&name_origin=4746&nameState_origin=empty&sessionID=0
de:09173:4747:0:1,"Geretsried, Verdiweg",47.853103242659,11.4795587762234,,,,http://efa.mvv-muenchen.de/mvv/XSLT_TRIP_REQUEST2?language=de&placeState_origin=empty&type_origin=stopID&name_origin=4747&nameState_origin=empty&sessionID=0
de:09173:4747:0:2,"Geretsried, Verdiweg",47.8530395018488,11.4793857018609,,,,http://efa.mvv-muenchen.de/mvv/XSLT_TRIP_REQUEST2?language=de&placeState_origin=empty&type_origin=stopID&name_origin=4747&nameState_origin=empty&sessionID=0
de:09173:4748:0:1,"Geretsried, Achenseeweg",47.8455305244267,11.4756263036245,,,,http://efa.mvv-muenchen.de/mvv/XSLT_TRIP_REQUEST2?language=de&placeState_origin=empty&type_origin=stopID&name_origin=4748&nameState_origin=empty&sessionID=0
de:09173:4749:0:1,"Wolfratshausen, Sauerlacher St",47.9141223036734,11.4330875864705,,,,http://efa.mvv-muenchen.de/mvv/XSLT_TRIP_REQUEST2?language=de&placeState_origin=empty&type_origin=stopID&name_origin=4749&nameState_origin=empty&sessionID=0
de:09173:4750:61:61,Icking,47.9532315793244,11.4376675701379,,,,http://efa.mvv-muenchen.de/mvv/XSLT_TRIP_REQUEST2?language=de&placeState_origin=empty&type_origin=stopID&name_origin=4750&nameState_origin=empty&sessionID=0
de:09173:4750:62:62,Icking,47.9536277397394,11.4377569946172,,,,http://efa.mvv-muenchen.de/mvv/XSLT_TRIP_REQUEST2?language=de&placeState_origin=empty&type_origin=stopID&name_origin=4750&nameState_origin=empty&sessionID=0
de:09173:4751:0:1,"Wolfratshausen, Föhrenwaldstr.",47.8966806918677,11.4417299706822,,,,http://efa.mvv-muenchen.de/mvv/XSLT_TRIP_REQUEST2?language=de&placeState_origin=empty&type_origin=stopID&name_origin=4751&nameState_origin=empty&sessionID=0
de:09173:4751:0:2,"Wolfratshausen, Föhrenwaldstr.",47.8968246500089,11.4417417984055,,,,http://efa.mvv-muenchen.de/mvv/XSLT_TRIP_REQUEST2?language=de&placeState_origin=empty&type_origin=stopID&name_origin=4751&nameState_origin=empty&sessionID=0
de:09173:4752:0:1,"Wolfratshausen, Am Wasen",47.9125926858246,11.4203285187608,,,,http://efa.mvv-muenchen.de/mvv/XSLT_TRIP_REQUEST2?language=de&placeState_origin=empty&type_origin=stopID&name_origin=4752&nameState_origin=empty&sessionID=0
de:09173:4752:0:2,"Wolfratshausen, Am Wasen",47.9118908737085,11.420269461086,,,,http://efa.mvv-muenchen.de/mvv/XSLT_TRIP_REQUEST2?language=de&placeState_origin=empty&type_origin=stopID&name_origin=4752&nameState_origin=empty&sessionID=0
de:09173:4752:0:3,"Wolfratshausen, Am Wasen",47.9120691194391,11.4199464091954,,,,http://efa.mvv-muenchen.de/mvv/XSLT_TRIP_REQUEST2?language=de&placeState_origin=empty&type_origin=stopID&name_origin=4752&nameState_origin=empty&sessionID=0
de:09173:4753:0:1,"Waldram, Volksschule",47.9007816831217,11.447276554073,,,,http://efa.mvv-muenchen.de/mvv/XSLT_TRIP_REQUEST2?language=de&placeState_origin=empty&type_origin=stopID&name_origin=4753&nameState_origin=empty&sessionID=0
de:09173:4753:0:2,"Waldram, Volksschule",47.9005841514491,11.4473455278438,,,,http://efa.mvv-muenchen.de/mvv/XSLT_TRIP_REQUEST2?language=de&placeState_origin=empty&type_origin=stopID&name_origin=4753&nameState_origin=empty&sessionID=0
de:09173:4754:0:1,"Wolfratshausen, Farchet B11",47.9066582788728,11.4314301085869,,,,http://efa.mvv-muenchen.de/mvv/XSLT_TRIP_REQUEST2?language=de&placeState_origin=empty&type_origin=stopID&name_origin=4754&nameState_origin=empty&sessionID=0
de:09173:4754:0:2,"Wolfratshausen, Farchet B11",47.906442175188,11.4313789683127,,,,http://efa.mvv-muenchen.de/mvv/XSLT_TRIP_REQUEST2?language=de&placeState_origin=empty&type_origin=stopID&name_origin=4754&nameState_origin=empty&sessionID=0
de:09173:4755:0:1,"Wolfratshausen, Korbinianstr.",47.8967084550605,11.4456080341973,,,,http://efa.mvv-muenchen.de/mvv/XSLT_TRIP_REQUEST2?language=de&placeState_origin=empty&type_origin=stopID&name_origin=4755&nameState_origin=empty&sessionID=0
de:09173:4755:0:2,"Wolfratshausen, Korbinianstr.",47.8967255385981,11.4454206207049,,,,http://efa.mvv-muenchen.de/mvv/XSLT_TRIP_REQUEST2?language=de&placeState_origin=empty&type_origin=stopID&name_origin=4755&nameState_origin=empty&sessionID=0
de:09173:4756:0:1,"Wolfratshausen, Waldram",47.8977155908351,11.440006994743,,,,http://efa.mvv-muenchen.de/mvv/XSLT_TRIP_REQUEST2?language=de&placeState_origin=empty&type_origin=stopID&name_origin=4756&nameState_origin=empty&sessionID=0
de:09173:4756:0:2,"Wolfratshausen, Waldram",47.8978362149409,11.438922405173,,,,http://efa.mvv-muenchen.de/mvv/XSLT_TRIP_REQUEST2?language=de&placeState_origin=empty&type_origin=stopID&name_origin=4756&nameState_origin=empty&sessionID=0
de:09173:4757:0:1,"Gelting, Breitenbachstraße",47.8908541576357,11.4364971585583,,,,http://efa.mvv-muenchen.de/mvv/XSLT_TRIP_REQUEST2?language=de&placeState_origin=empty&type_origin=stopID&name_origin=4757&nameState_origin=empty&sessionID=0
de:09173:4757:0:2,"Gelting, Breitenbachstraße",47.8906658877013,11.4366195478856,,,,http://efa.mvv-muenchen.de/mvv/XSLT_TRIP_REQUEST2?language=de&placeState_origin=empty&type_origin=stopID&name_origin=4757&nameState_origin=empty&sessionID=0
de:09173:4758:0:1,"Gelting, Alleebüchelweg",47.8928024037404,11.4267140030854,,,,http://efa.mvv-muenchen.de/mvv/XSLT_TRIP_REQUEST2?language=de&placeState_origin=empty&type_origin=stopID&name_origin=4758&nameState_origin=empty&sessionID=0
de:09173:4758:0:2,"Gelting, Alleebüchelweg",47.8927297902623,11.4265810773633,,,,http://efa.mvv-muenchen.de/mvv/XSLT_TRIP_REQUEST2?language=de&placeState_origin=empty&type_origin=stopID&name_origin=4758&nameState_origin=empty&sessionID=0
de:09173:4759:0:1,"Gelting (b.WOR), Ringstraße",47.8960013889155,11.4225596931509,,,,http://efa.mvv-muenchen.de/mvv/XSLT_TRIP_REQUEST2?language=de&placeState_origin=empty&type_origin=stopID&name_origin=4759&nameState_origin=empty&sessionID=0
de:09173:4759:0:2,"Gelting (b.WOR), Ringstraße",47.8961631338724,11.4225311494496,,,,http://efa.mvv-muenchen.de/mvv/XSLT_TRIP_REQUEST2?language=de&placeState_origin=empty&type_origin=stopID&name_origin=4759&nameState_origin=empty&sessionID=0
de:09173:4760:1:1,Wolfratshausen,47.9139201182161,11.426775330066,,,,http://efa.mvv-muenchen.de/mvv/XSLT_TRIP_REQUEST2?language=de&placeState_origin=empty&type_origin=stopID&name_origin=4760&nameState_origin=empty&sessionID=0
de:09173:4760:1:2,Wolfratshausen,47.9137850189661,11.4267366865038,,,,http://efa.mvv-muenchen.de/mvv/XSLT_TRIP_REQUEST2?language=de&placeState_origin=empty&type_origin=stopID&name_origin=4760&nameState_origin=empty&sessionID=0
de:09173:4760:1:3,Wolfratshausen,47.9136409264261,11.4266981423808,,,,http://efa.mvv-muenchen.de/mvv/XSLT_TRIP_REQUEST2?language=de&placeState_origin=empty&type_origin=stopID&name_origin=4760&nameState_origin=empty&sessionID=0
de:09173:4760:1:4,Wolfratshausen,47.9134878405955,11.4266596977155,,,,http://efa.mvv-muenchen.de/mvv/XSLT_TRIP_REQUEST2?language=de&placeState_origin=empty&type_origin=stopID&name_origin=4760&nameState_origin=empty&sessionID=0
de:09173:4760:2:5,Wolfratshausen,47.9139285110464,11.4266548345465,,,,http://efa.mvv-muenchen.de/mvv/XSLT_TRIP_REQUEST2?language=de&placeState_origin=empty&type_origin=stopID&name_origin=4760&nameState_origin=empty&sessionID=0
de:09173:4760:2:6,Wolfratshausen,47.9137934117573,11.4266161912923,,,,http://efa.mvv-muenchen.de/mvv/XSLT_TRIP_REQUEST2?language=de&placeState_origin=empty&type_origin=stopID&name_origin=4760&nameState_origin=empty&sessionID=0
de:09173:4760:2:7,Wolfratshausen,47.9136673057273,11.4265774489742,,,,http://efa.mvv-muenchen.de/mvv/XSLT_TRIP_REQUEST2?language=de&placeState_origin=empty&type_origin=stopID&name_origin=4760&nameState_origin=empty&sessionID=0
de:09173:4760:2:8,Wolfratshausen,47.9135232798683,11.426552282639,,,,http://efa.mvv-muenchen.de/mvv/XSLT_TRIP_REQUEST2?language=de&placeState_origin=empty&type_origin=stopID&name_origin=4760&nameState_origin=empty&sessionID=0
de:09173:4760:3:9,Wolfratshausen,47.9145858206041,11.4268081196205,,,,http://efa.mvv-muenchen.de/mvv/XSLT_TRIP_REQUEST2?language=de&placeState_origin=empty&type_origin=stopID&name_origin=4760&nameState_origin=empty&sessionID=0
de:09173:4761:0:1,"Wolfratshausen, Weldenstraße",47.9028591888171,11.4435361432066,,,,http://efa.mvv-muenchen.de/mvv/XSLT_TRIP_REQUEST2?language=de&placeState_origin=empty&type_origin=stopID&name_origin=4761&nameState_origin=empty&sessionID=0
de:09173:4761:0:2,"Wolfratshausen, Weldenstraße",47.9027156841747,11.4436179308847,,,,http://efa.mvv-muenchen.de/mvv/XSLT_TRIP_REQUEST2?language=de&placeState_origin=empty&type_origin=stopID&name_origin=4761&nameState_origin=empty&sessionID=0
de:09173:4763:0:1,"Wolfratshausen, Sudetenstraße",47.9034832370672,11.4405467460896,,,,http://efa.mvv-muenchen.de/mvv/XSLT_TRIP_REQUEST2?language=de&placeState_origin=empty&type_origin=stopID&name_origin=4763&nameState_origin=empty&sessionID=0
de:09173:4763:0:2,"Wolfratshausen, Sudetenstraße",47.9032673324777,11.4405356947931,,,,http://efa.mvv-muenchen.de/mvv/XSLT_TRIP_REQUEST2?language=de&placeState_origin=empty&type_origin=stopID&name_origin=4763&nameState_origin=empty&sessionID=0
de:09173:4764:0:1,"Geretsried, Blumenstraße",47.8830098137015,11.4585893931947,,,,http://efa.mvv-muenchen.de/mvv/XSLT_TRIP_REQUEST2?language=de&placeState_origin=empty&type_origin=stopID&name_origin=4764&nameState_origin=empty&sessionID=0
de:09173:4764:0:2,"Geretsried, Blumenstraße",47.8834462141578,11.4595876187576,,,,http://efa.mvv-muenchen.de/mvv/XSLT_TRIP_REQUEST2?language=de&placeState_origin=empty&type_origin=stopID&name_origin=4764&nameState_origin=empty&sessionID=0
de:09173:4765:1:1,"Geretsried, Rathaus B11",47.8735820491794,11.4657991232001,,,,http://efa.mvv-muenchen.de/mvv/XSLT_TRIP_REQUEST2?language=de&placeState_origin=empty&type_origin=stopID&name_origin=4765&nameState_origin=empty&sessionID=0
de:09173:4765:2:2,"Geretsried, Rathaus B11",47.8733305446575,11.4658685436031,,,,http://efa.mvv-muenchen.de/mvv/XSLT_TRIP_REQUEST2?language=de&placeState_origin=empty&type_origin=stopID&name_origin=4765&nameState_origin=empty&sessionID=0
de:09173:4766:0:1,"Geretsried, Lilienstraße",47.8835684786462,11.4645734605845,,,,http://efa.mvv-muenchen.de/mvv/XSLT_TRIP_REQUEST2?language=de&placeState_origin=empty&type_origin=stopID&name_origin=4766&nameState_origin=empty&sessionID=0
de:09173:4766:0:2,"Geretsried, Lilienstraße",47.8829691583928,11.4652748762671,,,,http://efa.mvv-muenchen.de/mvv/XSLT_TRIP_REQUEST2?language=de&placeState_origin=empty&type_origin=stopID&name_origin=4766&nameState_origin=empty&sessionID=0
de:09173:4768:0:1,"Geretsried, Johannisplatz",47.8794207013238,11.4700440517103,,,,http://efa.mvv-muenchen.de/mvv/XSLT_TRIP_REQUEST2?language=de&placeState_origin=empty&type_origin=stopID&name_origin=4768&nameState_origin=empty&sessionID=0
de:09173:4768:0:2,"Geretsried, Johannisplatz",47.8789710316084,11.4700486326758,,,,http://efa.mvv-muenchen.de/mvv/XSLT_TRIP_REQUEST2?language=de&placeState_origin=empty&type_origin=stopID&name_origin=4768&nameState_origin=empty&sessionID=0
de:09173:4770:0:1,"Geretsried, Rübezahlstraße",47.8740373504209,11.4709009558932,,,,http://efa.mvv-muenchen.de/mvv/XSLT_TRIP_REQUEST2?language=de&placeState_origin=empty&type_origin=stopID&name_origin=4770&nameState_origin=empty&sessionID=0
de:09173:4770:0:2,"Geretsried, Rübezahlstraße",47.8733268714877,11.47090818069,,,,http://efa.mvv-muenchen.de/mvv/XSLT_TRIP_REQUEST2?language=de&placeState_origin=empty&type_origin=stopID&name_origin=4770&nameState_origin=empty&sessionID=0
de:09173:4771:0:1,"Wolfratshausen, Birkenweg",47.9120107131117,11.4408295051245,,,,http://efa.mvv-muenchen.de/mvv/XSLT_TRIP_REQUEST2?language=de&placeState_origin=empty&type_origin=stopID&name_origin=4771&nameState_origin=empty&sessionID=0
de:09173:4771:0:2,"Wolfratshausen, Birkenweg",47.9120925636317,11.4410159109911,,,,http://efa.mvv-muenchen.de/mvv/XSLT_TRIP_REQUEST2?language=de&placeState_origin=empty&type_origin=stopID&name_origin=4771&nameState_origin=empty&sessionID=0
de:09173:4772:0:1,"Geretsried, Elbestraße",47.8822922323668,11.4589979609493,,,,http://efa.mvv-muenchen.de/mvv/XSLT_TRIP_REQUEST2?language=de&placeState_origin=empty&type_origin=stopID&name_origin=4772&nameState_origin=empty&sessionID=0
de:09173:4772:0:2,"Geretsried, Elbestraße",47.8824438609045,11.4587289841244,,,,http://efa.mvv-muenchen.de/mvv/XSLT_TRIP_REQUEST2?language=de&placeState_origin=empty&type_origin=stopID&name_origin=4772&nameState_origin=empty&sessionID=0
de:09173:4774:0:1,"Geretsried, Kirchplatz",47.8800085928484,11.4610805931681,,,,http://efa.mvv-muenchen.de/mvv/XSLT_TRIP_REQUEST2?language=de&placeState_origin=empty&type_origin=stopID&name_origin=4774&nameState_origin=empty&sessionID=0
de:09173:4774:0:2,"Geretsried, Kirchplatz",47.8800968964449,11.4607320744161,,,,http://efa.mvv-muenchen.de/mvv/XSLT_TRIP_REQUEST2?language=de&placeState_origin=empty&type_origin=stopID&name_origin=4774&nameState_origin=empty&sessionID=0
de:09173:4775:0:1,"Wolfratshausen, Schießstättstr",47.9106111592842,11.4323633937629,,,,http://efa.mvv-muenchen.de/mvv/XSLT_TRIP_REQUEST2?language=de&placeState_origin=empty&type_origin=stopID&name_origin=4775&nameState_origin=empty&sessionID=0
de:09173:4776:0:1,"Geretsried, Fasanenweg",47.8751636471994,11.467453897864,,,,http://efa.mvv-muenchen.de/mvv/XSLT_TRIP_REQUEST2?language=de&placeState_origin=empty&type_origin=stopID&name_origin=4776&nameState_origin=empty&sessionID=0
de:09173:4776:0:2,"Geretsried, Fasanenweg",47.8746090893522,11.4681146045543,,,,http://efa.mvv-muenchen.de/mvv/XSLT_TRIP_REQUEST2?language=de&placeState_origin=empty&type_origin=stopID&name_origin=4776&nameState_origin=empty&sessionID=0
de:09173:4776:0:3,"Geretsried, Fasanenweg",47.875022290777,11.4680034357882,,,,http://efa.mvv-muenchen.de/mvv/XSLT_TRIP_REQUEST2?language=de&placeState_origin=empty&type_origin=stopID&name_origin=4776&nameState_origin=empty&sessionID=0
de:09173:4777:0:1,"Geretsried, Feuerwehrschule",47.8515080227643,11.4990565517738,,,,http://efa.mvv-muenchen.de/mvv/XSLT_TRIP_REQUEST2?language=de&placeState_origin=empty&type_origin=stopID&name_origin=4777&nameState_origin=empty&sessionID=0
de:09173:4777:0:2,"Geretsried, Feuerwehrschule",47.8516138471319,11.498574499978,,,,http://efa.mvv-muenchen.de/mvv/XSLT_TRIP_REQUEST2?language=de&placeState_origin=empty&type_origin=stopID&name_origin=4777&nameState_origin=empty&sessionID=0
de:09173:4778:0:1,"Geretsried, Schulzentrum",47.868081363691,11.474369916507,,,,http://efa.mvv-muenchen.de/mvv/XSLT_TRIP_REQUEST2?language=de&placeState_origin=empty&type_origin=stopID&name_origin=4778&nameState_origin=empty&sessionID=0
de:09173:4778:0:2,"Geretsried, Schulzentrum",47.8682036014644,11.4735667027411,,,,http://efa.mvv-muenchen.de/mvv/XSLT_TRIP_REQUEST2?language=de&placeState_origin=empty&type_origin=stopID&name_origin=4778&nameState_origin=empty&sessionID=0
de:09173:4779:0:1,"Geretsried, St. Nikolaus",47.8600041001358,11.4683306720429,,,,http://efa.mvv-muenchen.de/mvv/XSLT_TRIP_REQUEST2?language=de&placeState_origin=empty&type_origin=stopID&name_origin=4779&nameState_origin=empty&sessionID=0
de:09173:4779:0:2,"Geretsried, St. Nikolaus",47.8598416003012,11.4681986900274,,,,http://efa.mvv-muenchen.de/mvv/XSLT_TRIP_REQUEST2?language=de&placeState_origin=empty&type_origin=stopID&name_origin=4779&nameState_origin=empty&sessionID=0
de:09173:4780:0:1,"Geretsried, Waldfriedhof",47.8615752530318,11.4815054989192,,,,http://efa.mvv-muenchen.de/mvv/XSLT_TRIP_REQUEST2?language=de&placeState_origin=empty&type_origin=stopID&name_origin=4780&nameState_origin=empty&sessionID=0
de:09173:4780:0:2,"Geretsried, Waldfriedhof",47.8617175801207,11.4811566003435,,,,http://efa.mvv-muenchen.de/mvv/XSLT_TRIP_REQUEST2?language=de&placeState_origin=empty&type_origin=stopID&name_origin=4780&nameState_origin=empty&sessionID=0
de:09173:4781:0:1,"Geretsried, Förderschule",47.8571692802956,11.4738119243488,,,,http://efa.mvv-muenchen.de/mvv/XSLT_TRIP_REQUEST2?language=de&placeState_origin=empty&type_origin=stopID&name_origin=4781&nameState_origin=empty&sessionID=0
de:09173:4782:0:1,"Geretsried, Sudetenstraße",47.8586213485794,11.482630755488,,,,http://efa.mvv-muenchen.de/mvv/XSLT_TRIP_REQUEST2?language=de&placeState_origin=empty&type_origin=stopID&name_origin=4782&nameState_origin=empty&sessionID=0
de:09173:4782:0:2,"Geretsried, Sudetenstraße",47.8585484384164,11.4824176587088,,,,http://efa.mvv-muenchen.de/mvv/XSLT_TRIP_REQUEST2?language=de&placeState_origin=empty&type_origin=stopID&name_origin=4782&nameState_origin=empty&sessionID=0
de:09173:4783:0:1,"Geretsried, Keplerweg",47.8497242790728,11.4963212277375,,,,http://efa.mvv-muenchen.de/mvv/XSLT_TRIP_REQUEST2?language=de&placeState_origin=empty&type_origin=stopID&name_origin=4783&nameState_origin=empty&sessionID=0
de:09173:4783:0:2,"Geretsried, Keplerweg",47.8498135111487,11.4961600256558,,,,http://efa.mvv-muenchen.de/mvv/XSLT_TRIP_REQUEST2?language=de&placeState_origin=empty&type_origin=stopID&name_origin=4783&nameState_origin=empty&sessionID=0
de:09173:4784:0:1,"Geretsried, Am Stern",47.8568666586733,11.4864433990589,,,,http://efa.mvv-muenchen.de/mvv/XSLT_TRIP_REQUEST2?language=de&placeState_origin=empty&type_origin=stopID&name_origin=4784&nameState_origin=empty&sessionID=0
de:09173:4784:0:2,"Geretsried, Am Stern",47.8566609433629,11.4866993318727,,,,http://efa.mvv-muenchen.de/mvv/XSLT_TRIP_REQUEST2?language=de&placeState_origin=empty&type_origin=stopID&name_origin=4784&nameState_origin=empty&sessionID=0
de:09173:4785:0:1,"Geretsried, Feuerwehr",47.8513303274383,11.4873130823967,,,,http://efa.mvv-muenchen.de/mvv/XSLT_TRIP_REQUEST2?language=de&placeState_origin=empty&type_origin=stopID&name_origin=4785&nameState_origin=empty&sessionID=0
de:09173:4785:0:2,"Geretsried, Feuerwehr",47.8511913138788,11.4884101304055,,,,http://efa.mvv-muenchen.de/mvv/XSLT_TRIP_REQUEST2?language=de&placeState_origin=empty&type_origin=stopID&name_origin=4785&nameState_origin=empty&sessionID=0
de:09173:4786:0:1,"Geretsried, Schubertweg",47.8532132166207,11.4820030079967,,,,http://efa.mvv-muenchen.de/mvv/XSLT_TRIP_REQUEST2?language=de&placeState_origin=empty&type_origin=stopID&name_origin=4786&nameState_origin=empty&sessionID=0
de:09173:4786:0:2,"Geretsried, Schubertweg",47.8530131315329,11.481510589198,,,,http://efa.mvv-muenchen.de/mvv/XSLT_TRIP_REQUEST2?language=de&placeState_origin=empty&type_origin=stopID&name_origin=4786&nameState_origin=empty&sessionID=0
de:09173:4786:0:3,"Geretsried, Schubertweg",47.852607675778,11.4833452627755,,,,http://efa.mvv-muenchen.de/mvv/XSLT_TRIP_REQUEST2?language=de&placeState_origin=empty&type_origin=stopID&name_origin=4786&nameState_origin=empty&sessionID=0
de:09173:4787:0:1,"Geretsried, Stein B11",47.8472507278012,11.4722153063967,,,,http://efa.mvv-muenchen.de/mvv/XSLT_TRIP_REQUEST2?language=de&placeState_origin=empty&type_origin=stopID&name_origin=4787&nameState_origin=empty&sessionID=0
de:09173:4787:0:2,"Geretsried, Stein B11",47.8470166527393,11.472164235062,,,,http://efa.mvv-muenchen.de/mvv/XSLT_TRIP_REQUEST2?language=de&placeState_origin=empty&type_origin=stopID&name_origin=4787&nameState_origin=empty&sessionID=0
de:09173:4788:0:1,"Geretsried, Stein",47.8483144071191,11.4747030722725,,,,http://efa.mvv-muenchen.de/mvv/XSLT_TRIP_REQUEST2?language=de&placeState_origin=empty&type_origin=stopID&name_origin=4788&nameState_origin=empty&sessionID=0
de:09173:4788:0:2,"Geretsried, Stein",47.8488927951905,11.4753118604488,,,,http://efa.mvv-muenchen.de/mvv/XSLT_TRIP_REQUEST2?language=de&placeState_origin=empty&type_origin=stopID&name_origin=4788&nameState_origin=empty&sessionID=0
de:09173:4789:0:1,"Wolfratshausen, Pfaffenr.Str.",47.9027642508762,11.427861398767,,,,http://efa.mvv-muenchen.de/mvv/XSLT_TRIP_REQUEST2?language=de&placeState_origin=empty&type_origin=stopID&name_origin=4789&nameState_origin=empty&sessionID=0
de:09173:4789:0:2,"Wolfratshausen, Pfaffenr.Str.",47.9027813719096,11.4276873323168,,,,http://efa.mvv-muenchen.de/mvv/XSLT_TRIP_REQUEST2?language=de&placeState_origin=empty&type_origin=stopID&name_origin=4789&nameState_origin=empty&sessionID=0
de:09173:4790:0:1,"Wolfratshausen, Wettersteinstr.",47.9127783611463,11.4232695645245,,,,http://efa.mvv-muenchen.de/mvv/XSLT_TRIP_REQUEST2?language=de&placeState_origin=empty&type_origin=stopID&name_origin=4790&nameState_origin=empty&sessionID=0
de:09173:4791:0:1,"Wolfratshausen, Städt.Bauhof",47.9055116619373,11.4287273393656,,,,http://efa.mvv-muenchen.de/mvv/XSLT_TRIP_REQUEST2?language=de&placeState_origin=empty&type_origin=stopID&name_origin=4791&nameState_origin=empty&sessionID=0
de:09173:4791:0:2,"Wolfratshausen, Städt.Bauhof",47.9055558306023,11.4285663425069,,,,http://efa.mvv-muenchen.de/mvv/XSLT_TRIP_REQUEST2?language=de&placeState_origin=empty&type_origin=stopID&name_origin=4791&nameState_origin=empty&sessionID=0
de:09173:4793:0:1,"Unterherrnhausen, Abzw.",47.8489255785596,11.4239370639813,,,,http://efa.mvv-muenchen.de/mvv/XSLT_TRIP_REQUEST2?language=de&placeState_origin=empty&type_origin=stopID&name_origin=4793&nameState_origin=empty&sessionID=0
de:09173:4793:0:2,"Unterherrnhausen, Abzw.",47.8484312109458,11.4239959780956,,,,http://efa.mvv-muenchen.de/mvv/XSLT_TRIP_REQUEST2?language=de&placeState_origin=empty&type_origin=stopID&name_origin=4793&nameState_origin=empty&sessionID=0
de:09173:4794:0:1,"Degerndorf, Abzw.",47.8960046761905,11.4143215895643,,,,http://efa.mvv-muenchen.de/mvv/XSLT_TRIP_REQUEST2?language=de&placeState_origin=empty&type_origin=stopID&name_origin=4794&nameState_origin=empty&sessionID=0
de:09173:4794:0:2,"Degerndorf, Abzw.",47.8955531035158,11.4139522227869,,,,http://efa.mvv-muenchen.de/mvv/XSLT_TRIP_REQUEST2?language=de&placeState_origin=empty&type_origin=stopID&name_origin=4794&nameState_origin=empty&sessionID=0
de:09173:4795:0:1,Degerndorf,47.8801291907366,11.3797666622842,,,,http://efa.mvv-muenchen.de/mvv/XSLT_TRIP_REQUEST2?language=de&placeState_origin=empty&type_origin=stopID&name_origin=4795&nameState_origin=empty&sessionID=0
de:09173:4795:0:2,Degerndorf,47.8800741488552,11.3795667777623,,,,http://efa.mvv-muenchen.de/mvv/XSLT_TRIP_REQUEST2?language=de&placeState_origin=empty&type_origin=stopID&name_origin=4795&nameState_origin=empty&sessionID=0
de:09173:4796:0:1,Achmühle,47.8835327113465,11.4112799318045,,,,http://efa.mvv-muenchen.de/mvv/XSLT_TRIP_REQUEST2?language=de&placeState_origin=empty&type_origin=stopID&name_origin=4796&nameState_origin=empty&sessionID=0
de:09173:4796:0:2,Achmühle,47.883505389027,11.4112133897496,,,,http://efa.mvv-muenchen.de/mvv/XSLT_TRIP_REQUEST2?language=de&placeState_origin=empty&type_origin=stopID&name_origin=4796&nameState_origin=empty&sessionID=0
de:09173:4797:0:1,Baierlach,47.8515124779084,11.4126175182329,,,,http://efa.mvv-muenchen.de/mvv/XSLT_TRIP_REQUEST2?language=de&placeState_origin=empty&type_origin=stopID&name_origin=4797&nameState_origin=empty&sessionID=0
de:09173:4797:0:2,Baierlach,47.8514042490352,11.4108015051965,,,,http://efa.mvv-muenchen.de/mvv/XSLT_TRIP_REQUEST2?language=de&placeState_origin=empty&type_origin=stopID&name_origin=4797&nameState_origin=empty&sessionID=0
de:09173:4798:0:1,Eurasburg,47.8553826958454,11.4061729560895,,,,http://efa.mvv-muenchen.de/mvv/XSLT_TRIP_REQUEST2?language=de&placeState_origin=empty&type_origin=stopID&name_origin=4798&nameState_origin=empty&sessionID=0
de:09173:4798:0:2,Eurasburg,47.8552659205979,11.4062010141718,,,,http://efa.mvv-muenchen.de/mvv/XSLT_TRIP_REQUEST2?language=de&placeState_origin=empty&type_origin=stopID&name_origin=4798&nameState_origin=empty&sessionID=0
de:09173:4799:0:1,Oberherrnhausen,47.8413192695816,11.4226451747825,,,,http://efa.mvv-muenchen.de/mvv/XSLT_TRIP_REQUEST2?language=de&placeState_origin=empty&type_origin=stopID&name_origin=4799&nameState_origin=empty&sessionID=0
de:09173:4799:0:2,Oberherrnhausen,47.8415704801756,11.4225221547433,,,,http://efa.mvv-muenchen.de/mvv/XSLT_TRIP_REQUEST2?language=de&placeState_origin=empty&type_origin=stopID&name_origin=4799&nameState_origin=empty&sessionID=0
de:09173:4800:0:1,Lengenwies,47.8453924851253,11.4048172327367,,,,http://efa.mvv-muenchen.de/mvv/XSLT_TRIP_REQUEST2?language=de&placeState_origin=empty&type_origin=stopID&name_origin=4800&nameState_origin=empty&sessionID=0
de:09173:4800:0:2,Lengenwies,47.8452752256317,11.4047517707004,,,,http://efa.mvv-muenchen.de/mvv/XSLT_TRIP_REQUEST2?language=de&placeState_origin=empty&type_origin=stopID&name_origin=4800&nameState_origin=empty&sessionID=0
de:09173:4801:0:1,Bierbichl,47.814280480553,11.4009531299645,,,,http://efa.mvv-muenchen.de/mvv/XSLT_TRIP_REQUEST2?language=de&placeState_origin=empty&type_origin=stopID&name_origin=4801&nameState_origin=empty&sessionID=0
de:09173:4801:0:2,Bierbichl,47.8142889866434,11.400859564779,,,,http://efa.mvv-muenchen.de/mvv/XSLT_TRIP_REQUEST2?language=de&placeState_origin=empty&type_origin=stopID&name_origin=4801&nameState_origin=empty&sessionID=0
de:09173:4802:0:1,"Beuerberg, Bruggen",47.8348588843845,11.4132194040536,,,,http://efa.mvv-muenchen.de/mvv/XSLT_TRIP_REQUEST2?language=de&placeState_origin=empty&type_origin=stopID&name_origin=4802&nameState_origin=empty&sessionID=0
de:09173:4803:0:1,Hofstätt/Sterz,47.8243713719372,11.4309795473151,,,,http://efa.mvv-muenchen.de/mvv/XSLT_TRIP_REQUEST2?language=de&placeState_origin=empty&type_origin=stopID&name_origin=4803&nameState_origin=empty&sessionID=0
de:09173:4803:0:2,Hofstätt/Sterz,47.8244699027846,11.4308983409587,,,,http://efa.mvv-muenchen.de/mvv/XSLT_TRIP_REQUEST2?language=de&placeState_origin=empty&type_origin=stopID&name_origin=4803&nameState_origin=empty&sessionID=0
de:09173:4804:0:1,"Beuerberg, Bahnhofstraße",47.8269679644525,11.4073248920235,,,,http://efa.mvv-muenchen.de/mvv/XSLT_TRIP_REQUEST2?language=de&placeState_origin=empty&type_origin=stopID&name_origin=4804&nameState_origin=empty&sessionID=0
de:09173:4805:0:1,Quarzbichl,47.7957071416961,11.4042497716096,,,,http://efa.mvv-muenchen.de/mvv/XSLT_TRIP_REQUEST2?language=de&placeState_origin=empty&type_origin=stopID&name_origin=4805&nameState_origin=empty&sessionID=0
de:09173:4805:0:2,Quarzbichl,47.7956519352091,11.4040101431994,,,,http://efa.mvv-muenchen.de/mvv/XSLT_TRIP_REQUEST2?language=de&placeState_origin=empty&type_origin=stopID&name_origin=4805&nameState_origin=empty&sessionID=0
de:09173:4806:0:1,"Wolfratshausen, Marienplatz",47.9147144939893,11.4184051241614,,,,http://efa.mvv-muenchen.de/mvv/XSLT_TRIP_REQUEST2?language=de&placeState_origin=empty&type_origin=stopID&name_origin=4806&nameState_origin=empty&sessionID=0
de:09173:4807:0:1,"Wolfratshausen, Badstraße",47.9097049076394,11.4183943150026,,,,http://efa.mvv-muenchen.de/mvv/XSLT_TRIP_REQUEST2?language=de&placeState_origin=empty&type_origin=stopID&name_origin=4807&nameState_origin=empty&sessionID=0
de:09173:4807:0:2,"Wolfratshausen, Badstraße",47.9095597291433,11.418141777473,,,,http://efa.mvv-muenchen.de/mvv/XSLT_TRIP_REQUEST2?language=de&placeState_origin=empty&type_origin=stopID&name_origin=4807&nameState_origin=empty&sessionID=0
de:09173:4807:0:3,"Wolfratshausen, Badstraße",47.9095804228375,11.4186766250589,,,,http://efa.mvv-muenchen.de/mvv/XSLT_TRIP_REQUEST2?language=de&placeState_origin=empty&type_origin=stopID&name_origin=4807&nameState_origin=empty&sessionID=0
de:09173:4808:0:1,Bergkramerhof,47.9032099665055,11.4023363390353,,,,http://efa.mvv-muenchen.de/mvv/XSLT_TRIP_REQUEST2?language=de&placeState_origin=empty&type_origin=stopID&name_origin=4808&nameState_origin=empty&sessionID=0
de:09173:4808:0:2,Bergkramerhof,47.90323381519,11.4017341739494,,,,http://efa.mvv-muenchen.de/mvv/XSLT_TRIP_REQUEST2?language=de&placeState_origin=empty&type_origin=stopID&name_origin=4808&nameState_origin=empty&sessionID=0
de:09173:4810:0:1,"Münsing, Gh.Neuwirt",47.9028530626905,11.3741454019611,,,,http://efa.mvv-muenchen.de/mvv/XSLT_TRIP_REQUEST2?language=de&placeState_origin=empty&type_origin=stopID&name_origin=4810&nameState_origin=empty&sessionID=0
de:09173:4810:0:2,"Münsing, Gh.Neuwirt",47.9029880335953,11.3741571517816,,,,http://efa.mvv-muenchen.de/mvv/XSLT_TRIP_REQUEST2?language=de&placeState_origin=empty&type_origin=stopID&name_origin=4810&nameState_origin=empty&sessionID=0
de:09173:4811:0:1,"Beuerberg, Anglberg",47.8335976733309,11.4163458931363,,,,http://efa.mvv-muenchen.de/mvv/XSLT_TRIP_REQUEST2?language=de&placeState_origin=empty&type_origin=stopID&name_origin=4811&nameState_origin=empty&sessionID=0
de:09173:4811:0:2,"Beuerberg, Anglberg",47.8335077394895,11.4163469006546,,,,http://efa.mvv-muenchen.de/mvv/XSLT_TRIP_REQUEST2?language=de&placeState_origin=empty&type_origin=stopID&name_origin=4811&nameState_origin=empty&sessionID=0
de:09173:4812:0:1,"Münsing, Am Kirchberg",47.9032564353284,11.3689642777863,,,,http://efa.mvv-muenchen.de/mvv/XSLT_TRIP_REQUEST2?language=de&placeState_origin=empty&type_origin=stopID&name_origin=4812&nameState_origin=empty&sessionID=0
de:09173:4813:0:1,"Münsing, Gewerbegebiet",47.9037563748566,11.3815177947171,,,,http://efa.mvv-muenchen.de/mvv/XSLT_TRIP_REQUEST2?language=de&placeState_origin=empty&type_origin=stopID&name_origin=4813&nameState_origin=empty&sessionID=0
de:09173:4813:0:2,"Münsing, Gewerbegebiet",47.9038763799339,11.3820915139267,,,,http://efa.mvv-muenchen.de/mvv/XSLT_TRIP_REQUEST2?language=de&placeState_origin=empty&type_origin=stopID&name_origin=4813&nameState_origin=empty&sessionID=0
de:09173:4814:0:1,"Münsing, Abzw. Ammerland",47.9050102540257,11.3640741821918,,,,http://efa.mvv-muenchen.de/mvv/XSLT_TRIP_REQUEST2?language=de&placeState_origin=empty&type_origin=stopID&name_origin=4814&nameState_origin=empty&sessionID=0
de:09173:4816:0:1,Wimpasing (b. Münsing),47.9017550352251,11.3418045443717,,,,http://efa.mvv-muenchen.de/mvv/XSLT_TRIP_REQUEST2?language=de&placeState_origin=empty&type_origin=stopID&name_origin=4816&nameState_origin=empty&sessionID=0
de:09173:4816:0:2,Wimpasing (b. Münsing),47.9016919299858,11.3417785936948,,,,http://efa.mvv-muenchen.de/mvv/XSLT_TRIP_REQUEST2?language=de&placeState_origin=empty&type_origin=stopID&name_origin=4816&nameState_origin=empty&sessionID=0
de:09173:4818:1:1,Ammerland,47.9025091108121,11.3337565093677,,,,http://efa.mvv-muenchen.de/mvv/XSLT_TRIP_REQUEST2?language=de&placeState_origin=empty&type_origin=stopID&name_origin=4818&nameState_origin=empty&sessionID=0
de:09173:4819:0:1,"Holzhausen(Amb), Brunnenstr.20",47.8813082979543,11.3538153536529,,,,http://efa.mvv-muenchen.de/mvv/XSLT_TRIP_REQUEST2?language=de&placeState_origin=empty&type_origin=stopID&name_origin=4819&nameState_origin=empty&sessionID=0
de:09173:4819:0:2,"Holzhausen(Amb), Brunnenstr.20",47.8813800180668,11.3537743532982,,,,http://efa.mvv-muenchen.de/mvv/XSLT_TRIP_REQUEST2?language=de&placeState_origin=empty&type_origin=stopID&name_origin=4819&nameState_origin=empty&sessionID=0
de:09173:4820:0:1,Holzhausen (b.Ambach),47.8794319435174,11.3496273573531,,,,http://efa.mvv-muenchen.de/mvv/XSLT_TRIP_REQUEST2?language=de&placeState_origin=empty&type_origin=stopID&name_origin=4820&nameState_origin=empty&sessionID=0
de:09173:4820:0:2,Holzhausen (b.Ambach),47.8794133518281,11.349520635989,,,,http://efa.mvv-muenchen.de/mvv/XSLT_TRIP_REQUEST2?language=de&placeState_origin=empty&type_origin=stopID&name_origin=4820&nameState_origin=empty&sessionID=0
de:09173:4821:0:1,Attenkam,47.8780216787367,11.3627865932949,,,,http://efa.mvv-muenchen.de/mvv/XSLT_TRIP_REQUEST2?language=de&placeState_origin=empty&type_origin=stopID&name_origin=4821&nameState_origin=empty&sessionID=0
de:09173:4821:0:2,Attenkam,47.8780758604423,11.3628260361562,,,,http://efa.mvv-muenchen.de/mvv/XSLT_TRIP_REQUEST2?language=de&placeState_origin=empty&type_origin=stopID&name_origin=4821&nameState_origin=empty&sessionID=0
de:09173:4823:0:1,"Pischetsried, Badeplatz",47.8294834572939,11.3392053728938,,,,http://efa.mvv-muenchen.de/mvv/XSLT_TRIP_REQUEST2?language=de&placeState_origin=empty&type_origin=stopID&name_origin=4823&nameState_origin=empty&sessionID=0
de:09173:4823:0:2,"Pischetsried, Badeplatz",47.8295010597491,11.3391383675898,,,,http://efa.mvv-muenchen.de/mvv/XSLT_TRIP_REQUEST2?language=de&placeState_origin=empty&type_origin=stopID&name_origin=4823&nameState_origin=empty&sessionID=0
de:09173:4825:0:1,Sankt Heinrich,47.8244256984769,11.3370926308829,,,,http://efa.mvv-muenchen.de/mvv/XSLT_TRIP_REQUEST2?language=de&placeState_origin=empty&type_origin=stopID&name_origin=4825&nameState_origin=empty&sessionID=0
de:09173:4825:0:2,Sankt Heinrich,47.8244520618293,11.3369854545824,,,,http://efa.mvv-muenchen.de/mvv/XSLT_TRIP_REQUEST2?language=de&placeState_origin=empty&type_origin=stopID&name_origin=4825&nameState_origin=empty&sessionID=0
de:09173:4826:30:1,Ambach,47.8712785009768,11.3346110575242,,,,http://efa.mvv-muenchen.de/mvv/XSLT_TRIP_REQUEST2?language=de&placeState_origin=empty&type_origin=stopID&name_origin=4826&nameState_origin=empty&sessionID=0
de:09173:4827:0:1,Ambach Süd,47.8571890558887,11.3415397756922,,,,http://efa.mvv-muenchen.de/mvv/XSLT_TRIP_REQUEST2?language=de&placeState_origin=empty&type_origin=stopID&name_origin=4827&nameState_origin=empty&sessionID=0
de:09173:4827:0:2,Ambach Süd,47.8574407894632,11.3415232274509,,,,http://efa.mvv-muenchen.de/mvv/XSLT_TRIP_REQUEST2?language=de&placeState_origin=empty&type_origin=stopID&name_origin=4827&nameState_origin=empty&sessionID=0
de:09173:4828:0:1,"Seeheim, Abzw.",47.8792246555829,11.3432261103166,,,,http://efa.mvv-muenchen.de/mvv/XSLT_TRIP_REQUEST2?language=de&placeState_origin=empty&type_origin=stopID&name_origin=4828&nameState_origin=empty&sessionID=0
de:09173:4828:0:2,"Seeheim, Abzw.",47.8792692395023,11.3431587013204,,,,http://efa.mvv-muenchen.de/mvv/XSLT_TRIP_REQUEST2?language=de&placeState_origin=empty&type_origin=stopID&name_origin=4828&nameState_origin=empty&sessionID=0
de:09173:4829:0:1,"Ambach, Badeplatz",47.8510159507986,11.3409631227053,,,,http://efa.mvv-muenchen.de/mvv/XSLT_TRIP_REQUEST2?language=de&placeState_origin=empty&type_origin=stopID&name_origin=4829&nameState_origin=empty&sessionID=0
de:09173:4829:0:2,"Ambach, Badeplatz",47.8507232600341,11.3401116689965,,,,http://efa.mvv-muenchen.de/mvv/XSLT_TRIP_REQUEST2?language=de&placeState_origin=empty&type_origin=stopID&name_origin=4829&nameState_origin=empty&sessionID=0
de:09173:4830:0:1,Dorfen (b.Wolfratshausen),47.9234242410418,11.4156047216274,,,,http://efa.mvv-muenchen.de/mvv/XSLT_TRIP_REQUEST2?language=de&placeState_origin=empty&type_origin=stopID&name_origin=4830&nameState_origin=empty&sessionID=0
de:09173:4830:0:2,Dorfen (b.Wolfratshausen),47.9238881972768,11.4166431932689,,,,http://efa.mvv-muenchen.de/mvv/XSLT_TRIP_REQUEST2?language=de&placeState_origin=empty&type_origin=stopID&name_origin=4830&nameState_origin=empty&sessionID=0
de:09173:4831:0:1,"Wolfratshausen, Gebhardtstraße",47.9133437486026,11.4284271773769,,,,http://efa.mvv-muenchen.de/mvv/XSLT_TRIP_REQUEST2?language=de&placeState_origin=empty&type_origin=stopID&name_origin=4831&nameState_origin=empty&sessionID=0
de:09173:4831:0:2,"Wolfratshausen, Gebhardtstraße",47.9134242889778,11.4283460234739,,,,http://efa.mvv-muenchen.de/mvv/XSLT_TRIP_REQUEST2?language=de&placeState_origin=empty&type_origin=stopID&name_origin=4831&nameState_origin=empty&sessionID=0
de:09173:4832:0:1,Weidach,47.9227806696502,11.4217267998707,,,,http://efa.mvv-muenchen.de/mvv/XSLT_TRIP_REQUEST2?language=de&placeState_origin=empty&type_origin=stopID&name_origin=4832&nameState_origin=empty&sessionID=0
de:09173:4832:0:2,Weidach,47.9227075118659,11.4214867678384,,,,http://efa.mvv-muenchen.de/mvv/XSLT_TRIP_REQUEST2?language=de&placeState_origin=empty&type_origin=stopID&name_origin=4832&nameState_origin=empty&sessionID=0
de:09173:4833:0:1,"Wolfratshausen, Holunderstr.",47.9099916412775,11.4417608750957,,,,http://efa.mvv-muenchen.de/mvv/XSLT_TRIP_REQUEST2?language=de&placeState_origin=empty&type_origin=stopID&name_origin=4833&nameState_origin=empty&sessionID=0
de:09173:4833:0:2,"Wolfratshausen, Holunderstr.",47.9102003055241,11.4421331931623,,,,http://efa.mvv-muenchen.de/mvv/XSLT_TRIP_REQUEST2?language=de&placeState_origin=empty&type_origin=stopID&name_origin=4833&nameState_origin=empty&sessionID=0
de:09173:4834:0:1,"Wolfratshausen, Meßnergassl",47.9141625128085,11.4357761579228,,,,http://efa.mvv-muenchen.de/mvv/XSLT_TRIP_REQUEST2?language=de&placeState_origin=empty&type_origin=stopID&name_origin=4834&nameState_origin=empty&sessionID=0
de:09173:4834:0:2,"Wolfratshausen, Meßnergassl",47.914071397786,11.4355363409996,,,,http://efa.mvv-muenchen.de/mvv/XSLT_TRIP_REQUEST2?language=de&placeState_origin=empty&type_origin=stopID&name_origin=4834&nameState_origin=empty&sessionID=0
de:09173:4836:0:1,"Wolfratshausen, Waldeckstraße",47.9134545818527,11.4418306916279,,,,http://efa.mvv-muenchen.de/mvv/XSLT_TRIP_REQUEST2?language=de&placeState_origin=empty&type_origin=stopID&name_origin=4836&nameState_origin=empty&sessionID=0
de:09173:4836:0:2,"Wolfratshausen, Waldeckstraße",47.913464419431,11.4420044996611,,,,http://efa.mvv-muenchen.de/mvv/XSLT_TRIP_REQUEST2?language=de&placeState_origin=empty&type_origin=stopID&name_origin=4836&nameState_origin=empty&sessionID=0
de:09173:4837:0:2,"Wolfratshausen, Enzianstraße",47.9052018033009,11.4388562647971,,,,http://efa.mvv-muenchen.de/mvv/XSLT_TRIP_REQUEST2?language=de&placeState_origin=empty&type_origin=stopID&name_origin=4837&nameState_origin=empty&sessionID=0
de:09173:4837:0:3,"Wolfratshausen, Enzianstraße",47.9047986710358,11.4391816354918,,,,http://efa.mvv-muenchen.de/mvv/XSLT_TRIP_REQUEST2?language=de&placeState_origin=empty&type_origin=stopID&name_origin=4837&nameState_origin=empty&sessionID=0
de:09173:4838:0:1,Puppling,47.9181230978547,11.4494467991289,,,,http://efa.mvv-muenchen.de/mvv/XSLT_TRIP_REQUEST2?language=de&placeState_origin=empty&type_origin=stopID&name_origin=4838&nameState_origin=empty&sessionID=0
de:09173:4838:0:2,Puppling,47.918052112338,11.4496482388514,,,,http://efa.mvv-muenchen.de/mvv/XSLT_TRIP_REQUEST2?language=de&placeState_origin=empty&type_origin=stopID&name_origin=4838&nameState_origin=empty&sessionID=0
de:09173:4839:0:1,"Wolfratshausen, Margeritenstr.",47.9068561213355,11.4332471177122,,,,http://efa.mvv-muenchen.de/mvv/XSLT_TRIP_REQUEST2?language=de&placeState_origin=empty&type_origin=stopID&name_origin=4839&nameState_origin=empty&sessionID=0
de:09173:4840:0:1,Riedhof,47.9213418210858,11.4663919106309,,,,http://efa.mvv-muenchen.de/mvv/XSLT_TRIP_REQUEST2?language=de&placeState_origin=empty&type_origin=stopID&name_origin=4840&nameState_origin=empty&sessionID=0
de:09173:4840:0:2,Riedhof,47.9211630721905,11.4666345861459,,,,http://efa.mvv-muenchen.de/mvv/XSLT_TRIP_REQUEST2?language=de&placeState_origin=empty&type_origin=stopID&name_origin=4840&nameState_origin=empty&sessionID=0
de:09173:4841:0:1,Neufahrn (b.Wolfratsh.),47.9151154144153,11.4815199385055,,,,http://efa.mvv-muenchen.de/mvv/XSLT_TRIP_REQUEST2?language=de&placeState_origin=empty&type_origin=stopID&name_origin=4841&nameState_origin=empty&sessionID=0
de:09173:4842:0:1,"Ergertshausen/Neufahrn, Abzw.",47.921504576073,11.4783386186818,,,,http://efa.mvv-muenchen.de/mvv/XSLT_TRIP_REQUEST2?language=de&placeState_origin=empty&type_origin=stopID&name_origin=4842&nameState_origin=empty&sessionID=0
de:09173:4842:0:2,"Ergertshausen/Neufahrn, Abzw.",47.9213697973904,11.4783667322432,,,,http://efa.mvv-muenchen.de/mvv/XSLT_TRIP_REQUEST2?language=de&placeState_origin=empty&type_origin=stopID&name_origin=4842&nameState_origin=empty&sessionID=0
de:09173:4843:0:1,"Dettenhausen, Abzw.",47.9348076383727,11.4988556701933,,,,http://efa.mvv-muenchen.de/mvv/XSLT_TRIP_REQUEST2?language=de&placeState_origin=empty&type_origin=stopID&name_origin=4843&nameState_origin=empty&sessionID=0
de:09173:4843:0:2,"Dettenhausen, Abzw.",47.9348509712204,11.4984805144464,,,,http://efa.mvv-muenchen.de/mvv/XSLT_TRIP_REQUEST2?language=de&placeState_origin=empty&type_origin=stopID&name_origin=4843&nameState_origin=empty&sessionID=0
de:09173:4845:0:1,"Egling, Rathausstr.",47.9260748279192,11.5051086788739,,,,http://efa.mvv-muenchen.de/mvv/XSLT_TRIP_REQUEST2?language=de&placeState_origin=empty&type_origin=stopID&name_origin=4845&nameState_origin=empty&sessionID=0
de:09173:4845:0:2,"Egling, Rathausstr.",47.9268716638048,11.5042714380196,,,,http://efa.mvv-muenchen.de/mvv/XSLT_TRIP_REQUEST2?language=de&placeState_origin=empty&type_origin=stopID&name_origin=4845&nameState_origin=empty&sessionID=0
de:09173:4848:0:1,"Oehnböck, Abzw.Thanning",47.9265551388217,11.5317463460442,,,,http://efa.mvv-muenchen.de/mvv/XSLT_TRIP_REQUEST2?language=de&placeState_origin=empty&type_origin=stopID&name_origin=4848&nameState_origin=empty&sessionID=0
de:09173:4848:0:2,"Oehnböck, Abzw.Thanning",47.9260937379038,11.5332893453659,,,,http://efa.mvv-muenchen.de/mvv/XSLT_TRIP_REQUEST2?language=de&placeState_origin=empty&type_origin=stopID&name_origin=4848&nameState_origin=empty&sessionID=0
de:09173:4850:0:1,Attenham,47.9326839445504,11.5554323756533,,,,http://efa.mvv-muenchen.de/mvv/XSLT_TRIP_REQUEST2?language=de&placeState_origin=empty&type_origin=stopID&name_origin=4850&nameState_origin=empty&sessionID=0
de:09173:4850:0:2,Attenham,47.9326498323638,11.5559144521759,,,,http://efa.mvv-muenchen.de/mvv/XSLT_TRIP_REQUEST2?language=de&placeState_origin=empty&type_origin=stopID&name_origin=4850&nameState_origin=empty&sessionID=0
de:09173:4852:0:1,Endlhausen,47.9437701845874,11.5760720066236,,,,http://efa.mvv-muenchen.de/mvv/XSLT_TRIP_REQUEST2?language=de&placeState_origin=empty&type_origin=stopID&name_origin=4852&nameState_origin=empty&sessionID=0
de:09173:4852:0:2,Endlhausen,47.9435902666175,11.5760600900052,,,,http://efa.mvv-muenchen.de/mvv/XSLT_TRIP_REQUEST2?language=de&placeState_origin=empty&type_origin=stopID&name_origin=4852&nameState_origin=empty&sessionID=0
de:09173:4854:0:1,Weipertshausen,47.9235365135633,11.3558323659678,,,,http://efa.mvv-muenchen.de/mvv/XSLT_TRIP_REQUEST2?language=de&placeState_origin=empty&type_origin=stopID&name_origin=4854&nameState_origin=empty&sessionID=0
de:09173:4854:0:2,Weipertshausen,47.9235987156274,11.3556977882272,,,,http://efa.mvv-muenchen.de/mvv/XSLT_TRIP_REQUEST2?language=de&placeState_origin=empty&type_origin=stopID&name_origin=4854&nameState_origin=empty&sessionID=0
de:09173:4855:0:1,"Schwaig, Abzw.",47.7920499167576,11.3962701104118,,,,http://efa.mvv-muenchen.de/mvv/XSLT_TRIP_REQUEST2?language=de&placeState_origin=empty&type_origin=stopID&name_origin=4855&nameState_origin=empty&sessionID=0
de:09173:4855:0:2,"Schwaig, Abzw.",47.7921215134258,11.3962025478477,,,,http://efa.mvv-muenchen.de/mvv/XSLT_TRIP_REQUEST2?language=de&placeState_origin=empty&type_origin=stopID&name_origin=4855&nameState_origin=empty&sessionID=0
de:09173:4856:0:1,"Deining, Gh.zur Post",47.95369783866,11.4975754068734,,,,http://efa.mvv-muenchen.de/mvv/XSLT_TRIP_REQUEST2?language=de&placeState_origin=empty&type_origin=stopID&name_origin=4856&nameState_origin=empty&sessionID=0
de:09173:4856:0:2,"Deining, Gh.zur Post",47.9536261845984,11.4976430423464,,,,http://efa.mvv-muenchen.de/mvv/XSLT_TRIP_REQUEST2?language=de&placeState_origin=empty&type_origin=stopID&name_origin=4856&nameState_origin=empty&sessionID=0
de:09173:4856:0:3,"Deining, Gh.zur Post",47.9539983003797,11.4984159683607,,,,http://efa.mvv-muenchen.de/mvv/XSLT_TRIP_REQUEST2?language=de&placeState_origin=empty&type_origin=stopID&name_origin=4856&nameState_origin=empty&sessionID=0
de:09173:4856:0:4,"Deining, Gh.zur Post",47.9542141399798,11.4984138818642,,,,http://efa.mvv-muenchen.de/mvv/XSLT_TRIP_REQUEST2?language=de&placeState_origin=empty&type_origin=stopID&name_origin=4856&nameState_origin=empty&sessionID=0
de:09173:4858:0:1,"Deining, Bergstraße",47.950747094128,11.497389775087,,,,http://efa.mvv-muenchen.de/mvv/XSLT_TRIP_REQUEST2?language=de&placeState_origin=empty&type_origin=stopID&name_origin=4858&nameState_origin=empty&sessionID=0
de:09173:4858:0:2,"Deining, Bergstraße",47.9506377694375,11.4970695325461,,,,http://efa.mvv-muenchen.de/mvv/XSLT_TRIP_REQUEST2?language=de&placeState_origin=empty&type_origin=stopID&name_origin=4858&nameState_origin=empty&sessionID=0
de:09173:4860:0:1,Hornstein,47.950920292647,11.475753681429,,,,http://efa.mvv-muenchen.de/mvv/XSLT_TRIP_REQUEST2?language=de&placeState_origin=empty&type_origin=stopID&name_origin=4860&nameState_origin=empty&sessionID=0
de:09173:4860:0:2,Hornstein,47.9510106527782,11.4758464821318,,,,http://efa.mvv-muenchen.de/mvv/XSLT_TRIP_REQUEST2?language=de&placeState_origin=empty&type_origin=stopID&name_origin=4860&nameState_origin=empty&sessionID=0
de:09173:4862:0:1,Sachsenhausen,47.9369026063198,11.4725893962154,,,,http://efa.mvv-muenchen.de/mvv/XSLT_TRIP_REQUEST2?language=de&placeState_origin=empty&type_origin=stopID&name_origin=4862&nameState_origin=empty&sessionID=0
de:09173:4862:0:2,Sachsenhausen,47.9371269477918,11.4724800444994,,,,http://efa.mvv-muenchen.de/mvv/XSLT_TRIP_REQUEST2?language=de&placeState_origin=empty&type_origin=stopID&name_origin=4862&nameState_origin=empty&sessionID=0
de:09173:4864:0:1,Ergertshausen,47.9291434380907,11.4770575062639,,,,http://efa.mvv-muenchen.de/mvv/XSLT_TRIP_REQUEST2?language=de&placeState_origin=empty&type_origin=stopID&name_origin=4864&nameState_origin=empty&sessionID=0
de:09173:4864:0:2,Ergertshausen,47.929207304189,11.477257593581,,,,http://efa.mvv-muenchen.de/mvv/XSLT_TRIP_REQUEST2?language=de&placeState_origin=empty&type_origin=stopID&name_origin=4864&nameState_origin=empty&sessionID=0
de:09173:4866:0:1,Aufhofen,47.9365222099,11.5278420551055,,,,http://efa.mvv-muenchen.de/mvv/XSLT_TRIP_REQUEST2?language=de&placeState_origin=empty&type_origin=stopID&name_origin=4866&nameState_origin=empty&sessionID=0
de:09173:4866:0:2,Aufhofen,47.9370889029435,11.52786366995,,,,http://efa.mvv-muenchen.de/mvv/XSLT_TRIP_REQUEST2?language=de&placeState_origin=empty&type_origin=stopID&name_origin=4866&nameState_origin=empty&sessionID=0
de:09173:4867:0:1,Dettenhausen,47.9383301705817,11.5064775331366,,,,http://efa.mvv-muenchen.de/mvv/XSLT_TRIP_REQUEST2?language=de&placeState_origin=empty&type_origin=stopID&name_origin=4867&nameState_origin=empty&sessionID=0
de:09173:4867:0:2,Dettenhausen,47.9380602551074,11.5064533303242,,,,http://efa.mvv-muenchen.de/mvv/XSLT_TRIP_REQUEST2?language=de&placeState_origin=empty&type_origin=stopID&name_origin=4867&nameState_origin=empty&sessionID=0
de:09173:4871:0:1,"Wolfratshausen, Stobäusstraße",47.9089666144636,11.4399660164232,,,,http://efa.mvv-muenchen.de/mvv/XSLT_TRIP_REQUEST2?language=de&placeState_origin=empty&type_origin=stopID&name_origin=4871&nameState_origin=empty&sessionID=0
de:09173:4871:0:2,"Wolfratshausen, Stobäusstraße",47.9087500582667,11.4398212059607,,,,http://efa.mvv-muenchen.de/mvv/XSLT_TRIP_REQUEST2?language=de&placeState_origin=empty&type_origin=stopID&name_origin=4871&nameState_origin=empty&sessionID=0
de:09173:4872:0:1,"Wolfratshausen, Bahnhofstraße",47.9151670109866,11.4225339906182,,,,http://efa.mvv-muenchen.de/mvv/XSLT_TRIP_REQUEST2?language=de&placeState_origin=empty&type_origin=stopID&name_origin=4872&nameState_origin=empty&sessionID=0
de:09173:4873:0:1,"Wolfratshausen, Königsdorfer S.",47.9099717888399,11.42316694639,,,,http://efa.mvv-muenchen.de/mvv/XSLT_TRIP_REQUEST2?language=de&placeState_origin=empty&type_origin=stopID&name_origin=4873&nameState_origin=empty&sessionID=0
de:09173:4873:0:2,"Wolfratshausen, Königsdorfer S.",47.9097326599106,11.4239053372513,,,,http://efa.mvv-muenchen.de/mvv/XSLT_TRIP_REQUEST2?language=de&placeState_origin=empty&type_origin=stopID&name_origin=4873&nameState_origin=empty&sessionID=0
de:09173:4874:1:1,"Wolfratshausen, Faulhaberstr.",47.8981221138852,11.4403770881306,,,,http://efa.mvv-muenchen.de/mvv/XSLT_TRIP_REQUEST2?language=de&placeState_origin=empty&type_origin=stopID&name_origin=4874&nameState_origin=empty&sessionID=0
de:09173:4874:1:3,"Wolfratshausen, Faulhaberstr.",47.8982670485497,11.4405895128294,,,,http://efa.mvv-muenchen.de/mvv/XSLT_TRIP_REQUEST2?language=de&placeState_origin=empty&type_origin=stopID&name_origin=4874&nameState_origin=empty&sessionID=0
de:09173:4876:0:1,"Wolfratshausen, Auenstraße",47.9136833595854,11.4316207921141,,,,http://efa.mvv-muenchen.de/mvv/XSLT_TRIP_REQUEST2?language=de&placeState_origin=empty&type_origin=stopID&name_origin=4876&nameState_origin=empty&sessionID=0
de:09173:4884:0:1,Thanning,47.9217221290449,11.5353490133103,,,,http://efa.mvv-muenchen.de/mvv/XSLT_TRIP_REQUEST2?language=de&placeState_origin=empty&type_origin=stopID&name_origin=4884&nameState_origin=empty&sessionID=0
de:09173:4884:0:2,Thanning,47.9219826136776,11.5352664025855,,,,http://efa.mvv-muenchen.de/mvv/XSLT_TRIP_REQUEST2?language=de&placeState_origin=empty&type_origin=stopID&name_origin=4884&nameState_origin=empty&sessionID=0
de:09173:4886:0:1,"Feldkirchen (WOR), Abzw.Moosh.",47.9080635398599,11.5450755049016,,,,http://efa.mvv-muenchen.de/mvv/XSLT_TRIP_REQUEST2?language=de&placeState_origin=empty&type_origin=stopID&name_origin=4886&nameState_origin=empty&sessionID=0
de:09173:4886:0:2,"Feldkirchen (WOR), Abzw.Moosh.",47.9081169712484,11.5449412714615,,,,http://efa.mvv-muenchen.de/mvv/XSLT_TRIP_REQUEST2?language=de&placeState_origin=empty&type_origin=stopID&name_origin=4886&nameState_origin=empty&sessionID=0
de:09173:4887:0:1,"Moosham, Eglinger Str.",47.9051391678682,11.5379584141452,,,,http://efa.mvv-muenchen.de/mvv/XSLT_TRIP_REQUEST2?language=de&placeState_origin=empty&type_origin=stopID&name_origin=4887&nameState_origin=empty&sessionID=0
de:09173:4887:0:2,"Moosham, Eglinger Str.",47.9050311927672,11.5379459980968,,,,http://efa.mvv-muenchen.de/mvv/XSLT_TRIP_REQUEST2?language=de&placeState_origin=empty&type_origin=stopID&name_origin=4887&nameState_origin=empty&sessionID=0
de:09173:4888:0:1,Schalkofen,47.8964502206229,11.5399614225746,,,,http://efa.mvv-muenchen.de/mvv/XSLT_TRIP_REQUEST2?language=de&placeState_origin=empty&type_origin=stopID&name_origin=4888&nameState_origin=empty&sessionID=0
de:09173:4888:0:2,Schalkofen,47.8973841487771,11.5396054404883,,,,http://efa.mvv-muenchen.de/mvv/XSLT_TRIP_REQUEST2?language=de&placeState_origin=empty&type_origin=stopID&name_origin=4888&nameState_origin=empty&sessionID=0
de:09173:4889:0:1,"Moosham, Feldkirchener Str.",47.9080218478394,11.5391233028125,,,,http://efa.mvv-muenchen.de/mvv/XSLT_TRIP_REQUEST2?language=de&placeState_origin=empty&type_origin=stopID&name_origin=4889&nameState_origin=empty&sessionID=0
de:09173:4889:0:2,"Moosham, Feldkirchener Str.",47.9080847483207,11.5391093685019,,,,http://efa.mvv-muenchen.de/mvv/XSLT_TRIP_REQUEST2?language=de&placeState_origin=empty&type_origin=stopID&name_origin=4889&nameState_origin=empty&sessionID=0
de:09173:4893:0:1,"Dietramszell,Wolfratshauser S.",47.8556358863448,11.5847409646865,,,,http://efa.mvv-muenchen.de/mvv/XSLT_TRIP_REQUEST2?language=de&placeState_origin=empty&type_origin=stopID&name_origin=4893&nameState_origin=empty&sessionID=0
de:09173:4893:0:2,"Dietramszell,Wolfratshauser S.",47.8555727382197,11.5846880159915,,,,http://efa.mvv-muenchen.de/mvv/XSLT_TRIP_REQUEST2?language=de&placeState_origin=empty&type_origin=stopID&name_origin=4893&nameState_origin=empty&sessionID=0
de:09173:4894:0:1,Weihermühle,47.8822063600937,11.5250462448672,,,,http://efa.mvv-muenchen.de/mvv/XSLT_TRIP_REQUEST2?language=de&placeState_origin=empty&type_origin=stopID&name_origin=4894&nameState_origin=empty&sessionID=0
de:09173:4894:0:2,Weihermühle,47.8821362894253,11.5255014609454,,,,http://efa.mvv-muenchen.de/mvv/XSLT_TRIP_REQUEST2?language=de&placeState_origin=empty&type_origin=stopID&name_origin=4894&nameState_origin=empty&sessionID=0
de:09173:4896:0:1,Emmerkofen,47.8721117508102,11.5419009913256,,,,http://efa.mvv-muenchen.de/mvv/XSLT_TRIP_REQUEST2?language=de&placeState_origin=empty&type_origin=stopID&name_origin=4896&nameState_origin=empty&sessionID=0
de:09173:4896:0:2,Emmerkofen,47.8714830043448,11.5421070329068,,,,http://efa.mvv-muenchen.de/mvv/XSLT_TRIP_REQUEST2?language=de&placeState_origin=empty&type_origin=stopID&name_origin=4896&nameState_origin=empty&sessionID=0
de:09173:4897:0:1,"Humbach, Abzw.Peretshofen",47.8650880338775,11.5420162667377,,,,http://efa.mvv-muenchen.de/mvv/XSLT_TRIP_REQUEST2?language=de&placeState_origin=empty&type_origin=stopID&name_origin=4897&nameState_origin=empty&sessionID=0
de:09173:4897:0:2,"Humbach, Abzw.Peretshofen",47.8652618367215,11.5427498428106,,,,http://efa.mvv-muenchen.de/mvv/XSLT_TRIP_REQUEST2?language=de&placeState_origin=empty&type_origin=stopID&name_origin=4897&nameState_origin=empty&sessionID=0
de:09173:4898:0:1,Humbach,47.8661323992092,11.5422877594235,,,,http://efa.mvv-muenchen.de/mvv/XSLT_TRIP_REQUEST2?language=de&placeState_origin=empty&type_origin=stopID&name_origin=4898&nameState_origin=empty&sessionID=0
de:09173:4898:0:2,Humbach,47.8659252291117,11.542209386755,,,,http://efa.mvv-muenchen.de/mvv/XSLT_TRIP_REQUEST2?language=de&placeState_origin=empty&type_origin=stopID&name_origin=4898&nameState_origin=empty&sessionID=0
de:09173:4900:0:1,"Thankirchen, Abzw.",47.8582791738735,11.5698193080623,,,,http://efa.mvv-muenchen.de/mvv/XSLT_TRIP_REQUEST2?language=de&placeState_origin=empty&type_origin=stopID&name_origin=4900&nameState_origin=empty&sessionID=0
de:09173:4900:0:2,"Thankirchen, Abzw.",47.8582526931433,11.5699531642476,,,,http://efa.mvv-muenchen.de/mvv/XSLT_TRIP_REQUEST2?language=de&placeState_origin=empty&type_origin=stopID&name_origin=4900&nameState_origin=empty&sessionID=0
de:09173:4901:0:1,"Manhartshofen, Abzw.",47.8588984985737,11.5576396701643,,,,http://efa.mvv-muenchen.de/mvv/XSLT_TRIP_REQUEST2?language=de&placeState_origin=empty&type_origin=stopID&name_origin=4901&nameState_origin=empty&sessionID=0
de:09173:4901:0:2,"Manhartshofen, Abzw.",47.8588711065324,11.557532991648,,,,http://efa.mvv-muenchen.de/mvv/XSLT_TRIP_REQUEST2?language=de&placeState_origin=empty&type_origin=stopID&name_origin=4901&nameState_origin=empty&sessionID=0
de:09173:4902:0:1,"Dietramszell, Schönegg",47.8546244530772,11.5885975175751,,,,http://efa.mvv-muenchen.de/mvv/XSLT_TRIP_REQUEST2?language=de&placeState_origin=empty&type_origin=stopID&name_origin=4902&nameState_origin=empty&sessionID=0
de:09173:4902:0:2,"Dietramszell, Schönegg",47.8547589742983,11.5884895522508,,,,http://efa.mvv-muenchen.de/mvv/XSLT_TRIP_REQUEST2?language=de&placeState_origin=empty&type_origin=stopID&name_origin=4902&nameState_origin=empty&sessionID=0
de:09173:4903:0:1,Peretshofen,47.8561591211722,11.5291458528656,,,,http://efa.mvv-muenchen.de/mvv/XSLT_TRIP_REQUEST2?language=de&placeState_origin=empty&type_origin=stopID&name_origin=4903&nameState_origin=empty&sessionID=0
de:09173:4903:0:2,Peretshofen,47.8560162099504,11.5293876823113,,,,http://efa.mvv-muenchen.de/mvv/XSLT_TRIP_REQUEST2?language=de&placeState_origin=empty&type_origin=stopID&name_origin=4903&nameState_origin=empty&sessionID=0
de:09173:4904:0:1,"Dietramszell, Raiffeisenstraße",47.85298419049,11.5926993633389,,,,http://efa.mvv-muenchen.de/mvv/XSLT_TRIP_REQUEST2?language=de&placeState_origin=empty&type_origin=stopID&name_origin=4904&nameState_origin=empty&sessionID=0
de:09173:4904:0:2,"Dietramszell, Raiffeisenstraße",47.8531368448699,11.5926313574992,,,,http://efa.mvv-muenchen.de/mvv/XSLT_TRIP_REQUEST2?language=de&placeState_origin=empty&type_origin=stopID&name_origin=4904&nameState_origin=empty&sessionID=0
de:09173:4905:0:1,"Dietramszell, Schule",47.8482855002824,11.5941390247428,,,,http://efa.mvv-muenchen.de/mvv/XSLT_TRIP_REQUEST2?language=de&placeState_origin=empty&type_origin=stopID&name_origin=4905&nameState_origin=empty&sessionID=0
de:09173:4906:0:1,"Dietramszell, Kloster",47.8497027215288,11.5956111141914,,,,http://efa.mvv-muenchen.de/mvv/XSLT_TRIP_REQUEST2?language=de&placeState_origin=empty&type_origin=stopID&name_origin=4906&nameState_origin=empty&sessionID=0
de:09173:4907:0:1,Berg,47.9079817598824,11.5953853862418,,,,http://efa.mvv-muenchen.de/mvv/XSLT_TRIP_REQUEST2?language=de&placeState_origin=empty&type_origin=stopID&name_origin=4907&nameState_origin=empty&sessionID=0
de:09173:4907:0:2,Berg,47.9077484462271,11.5955343433655,,,,http://efa.mvv-muenchen.de/mvv/XSLT_TRIP_REQUEST2?language=de&placeState_origin=empty&type_origin=stopID&name_origin=4907&nameState_origin=empty&sessionID=0
de:09173:4908:0:1,Fraßhausen,47.9160504589221,11.5806863666615,,,,http://efa.mvv-muenchen.de/mvv/XSLT_TRIP_REQUEST2?language=de&placeState_origin=empty&type_origin=stopID&name_origin=4908&nameState_origin=empty&sessionID=0
de:09173:4908:0:2,Fraßhausen,47.9161408326941,11.5808060452385,,,,http://efa.mvv-muenchen.de/mvv/XSLT_TRIP_REQUEST2?language=de&placeState_origin=empty&type_origin=stopID&name_origin=4908&nameState_origin=empty&sessionID=0
de:09173:4909:0:1,Baiernrain,47.9005161698877,11.6081493603348,,,,http://efa.mvv-muenchen.de/mvv/XSLT_TRIP_REQUEST2?language=de&placeState_origin=empty&type_origin=stopID&name_origin=4909&nameState_origin=empty&sessionID=0
de:09173:4909:0:2,Baiernrain,47.9005616387509,11.6082961385517,,,,http://efa.mvv-muenchen.de/mvv/XSLT_TRIP_REQUEST2?language=de&placeState_origin=empty&type_origin=stopID&name_origin=4909&nameState_origin=empty&sessionID=0
de:09173:4911:0:1,Linden,47.8881687046602,11.5878509364916,,,,http://efa.mvv-muenchen.de/mvv/XSLT_TRIP_REQUEST2?language=de&placeState_origin=empty&type_origin=stopID&name_origin=4911&nameState_origin=empty&sessionID=0
de:09173:4911:0:2,Linden,47.8882407966883,11.5878904796807,,,,http://efa.mvv-muenchen.de/mvv/XSLT_TRIP_REQUEST2?language=de&placeState_origin=empty&type_origin=stopID&name_origin=4911&nameState_origin=empty&sessionID=0
de:09173:4911:0:3,Linden,47.8881139764543,11.5876374273739,,,,http://efa.mvv-muenchen.de/mvv/XSLT_TRIP_REQUEST2?language=de&placeState_origin=empty&type_origin=stopID&name_origin=4911&nameState_origin=empty&sessionID=0
de:09173:4912:0:1,"Wiesen, Bibisee",47.838018545558,11.4751675768526,,,,http://efa.mvv-muenchen.de/mvv/XSLT_TRIP_REQUEST2?language=de&placeState_origin=empty&type_origin=stopID&name_origin=4912&nameState_origin=empty&sessionID=0
de:09173:4912:0:2,"Wiesen, Bibisee",47.8379726020357,11.4749543028746,,,,http://efa.mvv-muenchen.de/mvv/XSLT_TRIP_REQUEST2?language=de&placeState_origin=empty&type_origin=stopID&name_origin=4912&nameState_origin=empty&sessionID=0
de:09173:4914:0:1,"Wiesen, Ort",47.8310565050249,11.4789508845106,,,,http://efa.mvv-muenchen.de/mvv/XSLT_TRIP_REQUEST2?language=de&placeState_origin=empty&type_origin=stopID&name_origin=4914&nameState_origin=empty&sessionID=0
de:09173:4914:0:2,"Wiesen, Ort",47.8309657828816,11.4787781538672,,,,http://efa.mvv-muenchen.de/mvv/XSLT_TRIP_REQUEST2?language=de&placeState_origin=empty&type_origin=stopID&name_origin=4914&nameState_origin=empty&sessionID=0
de:09173:4915:0:1,"Osterhofen, Feuerwehrhaus",47.8192162188493,11.4900193026405,,,,http://efa.mvv-muenchen.de/mvv/XSLT_TRIP_REQUEST2?language=de&placeState_origin=empty&type_origin=stopID&name_origin=4915&nameState_origin=empty&sessionID=0
de:09173:4915:0:2,"Osterhofen, Feuerwehrhaus",47.8192078177954,11.4901529221588,,,,http://efa.mvv-muenchen.de/mvv/XSLT_TRIP_REQUEST2?language=de&placeState_origin=empty&type_origin=stopID&name_origin=4915&nameState_origin=empty&sessionID=0
de:09173:4916:0:1,"Königsdorf, Ortsmitte",47.8166046902152,11.4812451765662,,,,http://efa.mvv-muenchen.de/mvv/XSLT_TRIP_REQUEST2?language=de&placeState_origin=empty&type_origin=stopID&name_origin=4916&nameState_origin=empty&sessionID=0
de:09173:4916:0:2,"Königsdorf, Ortsmitte",47.8170282287833,11.4814279068043,,,,http://efa.mvv-muenchen.de/mvv/XSLT_TRIP_REQUEST2?language=de&placeState_origin=empty&type_origin=stopID&name_origin=4916&nameState_origin=empty&sessionID=0
